{
"type": "FeatureCollection",
"crs": { "type": "name", "properties": { "name": "urn:ogc:def:crs:OGC:1.3:CRS84" } },
                                                                                
"features": [
{ "type": "Feature", "properties": { "NAME_FR": "Tirana", "PAYS_FR": "Albanie", "LDIR": "W", "CAPITAL": "yes", "NAME": "Tirana", "RANK": 1.000000, "PLACE": "city", "POPULATION": 419000.000000, "PRESENCE": "yes" }, "geometry": { "type": "Point", "coordinates": [ 19.82, 41.33 ] } },
{ "type": "Feature", "properties": { "NAME_FR": "Pago Pago", "PAYS_FR": "Samoa américaines", "LDIR": "N", "CAPITAL": "yes", "NAME": "Pago Pago", "RANK": 4.000000, "PLACE": "city", "POPULATION": 64000.000000, "PRESENCE": "no" }, "geometry": { "type": "Point", "coordinates": [ -170.7, -14.28 ] } },
{ "type": "Feature", "properties": { "NAME_FR": "Andorre-la-Vieille", "PAYS_FR": "Andorre", "LDIR": "N", "CAPITAL": "yes", "NAME": "Andorra la Vella", "RANK": 3.000000, "PLACE": "city", "POPULATION": 23000.000000, "PRESENCE": "yes" }, "geometry": { "type": "Point", "coordinates": [ 1.51, 42.51 ] } },
{ "type": "Feature", "properties": { "NAME_FR": "The Valley", "PAYS_FR": "Anguilla", "LDIR": null, "CAPITAL": "yes", "NAME": "The Valley", "RANK": 4.000000, "PLACE": "city", "POPULATION": 2000.000000, "PRESENCE": "no" }, "geometry": { "type": "Point", "coordinates": [ -63.05, 18.22 ] } },
{ "type": "Feature", "properties": { "NAME_FR": "Saint John’s", "PAYS_FR": "Antigua-et-Barbuda", "LDIR": null, "CAPITAL": "yes", "NAME": "St. John's", "RANK": 4.000000, "PLACE": "city", "POPULATION": 27000.000000, "PRESENCE": "no" }, "geometry": { "type": "Point", "coordinates": [ -61.85, 17.12 ] } },
{ "type": "Feature", "properties": { "NAME_FR": "Oranjestad", "PAYS_FR": "Aruba", "LDIR": null, "CAPITAL": "yes", "NAME": "Oranjestad", "RANK": 4.000000, "PLACE": "city", "POPULATION": 37000.000000, "PRESENCE": "no" }, "geometry": { "type": "Point", "coordinates": [ -70.03, 12.53 ] } },
{ "type": "Feature", "properties": { "NAME_FR": "Manama", "PAYS_FR": "Bahreïn", "LDIR": "N", "CAPITAL": "yes", "NAME": "Manama", "RANK": 2.000000, "PLACE": "city", "POPULATION": 262000.000000, "PRESENCE": "yes" }, "geometry": { "type": "Point", "coordinates": [ 50.58, 26.24 ] } },
{ "type": "Feature", "properties": { "NAME_FR": "Bridgetown", "PAYS_FR": "Barbade", "LDIR": "W", "CAPITAL": "yes", "NAME": "Bridgetown", "RANK": 4.000000, "PLACE": "city", "POPULATION": 122000.000000, "PRESENCE": "no" }, "geometry": { "type": "Point", "coordinates": [ -59.61, 13.11 ] } },
{ "type": "Feature", "properties": { "NAME_FR": "Belmopan", "PAYS_FR": "Belize", "LDIR": "E", "CAPITAL": "yes", "NAME": "Belmopan", "RANK": 3.000000, "PLACE": "city", "POPULATION": 14000.000000, "PRESENCE": "no" }, "geometry": { "type": "Point", "coordinates": [ -88.79, 17.25 ] } },
{ "type": "Feature", "properties": { "NAME_FR": "Cotonou", "PAYS_FR": "Bénin", "LDIR": "NW", "CAPITAL": "yes", "NAME": "Cotonou", "RANK": 2.000000, "PLACE": "city", "POPULATION": 924000.000000, "PRESENCE": "yes" }, "geometry": { "type": "Point", "coordinates": [ 2.43, 6.35 ] } },
{ "type": "Feature", "properties": { "NAME_FR": "Porto-Novo", "PAYS_FR": "Bénin", "LDIR": "S", "CAPITAL": "yes", "NAME": "Porto-Novo", "RANK": 2.000000, "PLACE": "city", "POPULATION": 314000.000000, "PRESENCE": "no" }, "geometry": { "type": "Point", "coordinates": [ 2.62, 6.48 ] } },
{ "type": "Feature", "properties": { "NAME_FR": "Hamilton", "PAYS_FR": "Bermudes", "LDIR": null, "CAPITAL": "yes", "NAME": "Hamilton", "RANK": 4.000000, "PLACE": "city", "POPULATION": 11000.000000, "PRESENCE": "no" }, "geometry": { "type": "Point", "coordinates": [ -64.8, 32.3 ] } },
{ "type": "Feature", "properties": { "NAME_FR": "Thimphou", "PAYS_FR": "Bhoutan", "LDIR": "E", "CAPITAL": "yes", "NAME": "Thimphu", "RANK": 1.000000, "PLACE": "city", "POPULATION": 99000.000000, "PRESENCE": "no" }, "geometry": { "type": "Point", "coordinates": [ 89.6, 27.48 ] } },
{ "type": "Feature", "properties": { "NAME_FR": "Sucre", "PAYS_FR": "Bolivie", "LDIR": "E", "CAPITAL": "yes", "NAME": "Sucre", "RANK": 1.000000, "PLACE": "city", "POPULATION": 307000.000000, "PRESENCE": "no" }, "geometry": { "type": "Point", "coordinates": [ -65.26, -19.04 ] } },
{ "type": "Feature", "properties": { "NAME_FR": "Sarajevo", "PAYS_FR": "Bosnie-Herzégovine", "LDIR": "S", "CAPITAL": "yes", "NAME": "Sarajevo", "RANK": 2.000000, "PLACE": "city", "POPULATION": 389000.000000, "PRESENCE": "yes" }, "geometry": { "type": "Point", "coordinates": [ 18.42, 43.87 ] } },
{ "type": "Feature", "properties": { "NAME_FR": "Road Town", "PAYS_FR": "Îles Vierges britanniques", "LDIR": null, "CAPITAL": "yes", "NAME": "Road Town", "RANK": 4.000000, "PLACE": "city", "POPULATION": 10000.000000, "PRESENCE": "no" }, "geometry": { "type": "Point", "coordinates": [ -64.63, 18.43 ] } },
{ "type": "Feature", "properties": { "NAME_FR": "Bandar Seri Begawan", "PAYS_FR": "Brunei", "LDIR": "N", "CAPITAL": "yes", "NAME": "Bandar Seri Begawan", "RANK": 2.000000, "PLACE": "city", "POPULATION": 16000.000000, "PRESENCE": "yes" }, "geometry": { "type": "Point", "coordinates": [ 114.93, 4.88 ] } },
{ "type": "Feature", "properties": { "NAME_FR": "Ouagadougou", "PAYS_FR": "Burkina Faso", "LDIR": "W", "CAPITAL": "yes", "NAME": "Ouagadougou", "RANK": 2.000000, "PLACE": "city", "POPULATION": 2053000.000000, "PRESENCE": "yes" }, "geometry": { "type": "Point", "coordinates": [ -1.52, 12.37 ] } },
{ "type": "Feature", "properties": { "NAME_FR": "Bujumbura", "PAYS_FR": "Burundi", "LDIR": "W", "CAPITAL": "yes", "NAME": "Bujumbura", "RANK": 2.000000, "PLACE": "city", "POPULATION": 605000.000000, "PRESENCE": "yes" }, "geometry": { "type": "Point", "coordinates": [ 29.37, -3.38 ] } },
{ "type": "Feature", "properties": { "NAME_FR": "Yaoundé", "PAYS_FR": "Cameroun", "LDIR": "S", "CAPITAL": "yes", "NAME": "Yaoundé", "RANK": 2.000000, "PLACE": "city", "POPULATION": 2432000.000000, "PRESENCE": "yes" }, "geometry": { "type": "Point", "coordinates": [ 11.52, 3.87 ] } },
{ "type": "Feature", "properties": { "NAME_FR": "Praia", "PAYS_FR": "Cabo Verde", "LDIR": "E", "CAPITAL": "yes", "NAME": "Praia", "RANK": 2.000000, "PLACE": "city", "POPULATION": 132000.000000, "PRESENCE": "yes" }, "geometry": { "type": "Point", "coordinates": [ -23.54, 14.93 ] } },
{ "type": "Feature", "properties": { "NAME_FR": "Bangui", "PAYS_FR": "Centrafrique", "LDIR": "W", "CAPITAL": "yes", "NAME": "Bangui", "RANK": 2.000000, "PLACE": "city", "POPULATION": 740000.000000, "PRESENCE": "yes" }, "geometry": { "type": "Point", "coordinates": [ 18.62, 4.38 ] } },
{ "type": "Feature", "properties": { "NAME_FR": "N'Djaména", "PAYS_FR": "Tchad", "LDIR": "E", "CAPITAL": "yes", "NAME": "N'Djamena", "RANK": 2.000000, "PLACE": "city", "POPULATION": 1079000.000000, "PRESENCE": "yes" }, "geometry": { "type": "Point", "coordinates": [ 15.05, 12.12 ] } },
{ "type": "Feature", "properties": { "NAME_FR": "Saint-Hélier", "PAYS_FR": "Jersey", "LDIR": "N", "CAPITAL": "no", "NAME": "St. Helier", "RANK": 5.000000, "PLACE": "city", "POPULATION": 31000.000000, "PRESENCE": "no" }, "geometry": { "type": "Point", "coordinates": [ -2.1, 49.18 ] } },
{ "type": "Feature", "properties": { "NAME_FR": "Moroni", "PAYS_FR": "Comores", "LDIR": "NW", "CAPITAL": "yes", "NAME": "Moroni", "RANK": 2.000000, "PLACE": "city", "POPULATION": 54000.000000, "PRESENCE": "yes" }, "geometry": { "type": "Point", "coordinates": [ 43.24, -11.7 ] } },
{ "type": "Feature", "properties": { "NAME_FR": "Brazzaville", "PAYS_FR": "Congo", "LDIR": "NW", "CAPITAL": "yes", "NAME": "Brazzaville", "RANK": 2.000000, "PLACE": "city", "POPULATION": 1611000.000000, "PRESENCE": "yes" }, "geometry": { "type": "Point", "coordinates": [ 15.26, -4.25 ] } },
{ "type": "Feature", "properties": { "NAME_FR": "Rarotonga", "PAYS_FR": "Îles Cook", "LDIR": null, "CAPITAL": "yes", "NAME": "Rarotonga", "RANK": 4.000000, "PLACE": "city", "POPULATION": 15000.000000, "PRESENCE": "no" }, "geometry": { "type": "Point", "coordinates": [ -159.76, -21.23 ] } },
{ "type": "Feature", "properties": { "NAME_FR": "San José", "PAYS_FR": "Costa Rica", "LDIR": "SE", "CAPITAL": "yes", "NAME": "San José", "RANK": 3.000000, "PLACE": "city", "POPULATION": 1515000.000000, "PRESENCE": "yes" }, "geometry": { "type": "Point", "coordinates": [ -84.08, 9.93 ] } },
{ "type": "Feature", "properties": { "NAME_FR": "Zagreb", "PAYS_FR": "Croatie", "LDIR": "W", "CAPITAL": "yes", "NAME": "Zagreb", "RANK": 2.000000, "PLACE": "city", "POPULATION": 686000.000000, "PRESENCE": "yes" }, "geometry": { "type": "Point", "coordinates": [ 16.0, 45.8 ] } },
{ "type": "Feature", "properties": { "NAME_FR": "Nicosie", "PAYS_FR": "Chypre", "LDIR": "E", "CAPITAL": "yes", "NAME": "Nicosia", "RANK": 2.000000, "PLACE": "city", "POPULATION": 253000.000000, "PRESENCE": "yes" }, "geometry": { "type": "Point", "coordinates": [ 33.37, 35.17 ] } },
{ "type": "Feature", "properties": { "NAME_FR": "Roseau", "PAYS_FR": "Dominique", "LDIR": null, "CAPITAL": "yes", "NAME": "Roseau", "RANK": 4.000000, "PLACE": "city", "POPULATION": 14000.000000, "PRESENCE": "no" }, "geometry": { "type": "Point", "coordinates": [ -61.39, 15.3 ] } },
{ "type": "Feature", "properties": { "NAME_FR": "San Salvador", "PAYS_FR": "Salvador", "LDIR": null, "CAPITAL": "yes", "NAME": "San Salvador", "RANK": 2.000000, "PLACE": "city", "POPULATION": 1605000.000000, "PRESENCE": "yes" }, "geometry": { "type": "Point", "coordinates": [ -89.19, 13.69 ] } },
{ "type": "Feature", "properties": { "NAME_FR": "Malabo", "PAYS_FR": "Guinée équatoriale", "LDIR": "W", "CAPITAL": "yes", "NAME": "Malabo", "RANK": 2.000000, "PLACE": "city", "POPULATION": 137000.000000, "PRESENCE": "yes" }, "geometry": { "type": "Point", "coordinates": [ 8.79, 3.75 ] } },
{ "type": "Feature", "properties": { "NAME_FR": "Asmara", "PAYS_FR": "Erythrée", "LDIR": "S", "CAPITAL": "yes", "NAME": "Asmara", "RANK": 2.000000, "PLACE": "city", "POPULATION": 712000.000000, "PRESENCE": "yes" }, "geometry": { "type": "Point", "coordinates": [ 38.93, 15.33 ] } },
{ "type": "Feature", "properties": { "NAME_FR": "Tallinn", "PAYS_FR": "Estonie", "LDIR": "E", "CAPITAL": "yes", "NAME": "Tallinn", "RANK": 2.000000, "PLACE": "city", "POPULATION": 400000.000000, "PRESENCE": "yes" }, "geometry": { "type": "Point", "coordinates": [ 24.74, 59.44 ] } },
{ "type": "Feature", "properties": { "NAME_FR": "Port Stanley", "PAYS_FR": "Îles Malouines", "LDIR": null, "CAPITAL": "yes", "NAME": "Stanley", "RANK": 5.000000, "PLACE": "city", "POPULATION": 2000.000000, "PRESENCE": "no" }, "geometry": { "type": "Point", "coordinates": [ -57.82, -51.7 ] } },
{ "type": "Feature", "properties": { "NAME_FR": "Tórshavn", "PAYS_FR": "Îles Féroé", "LDIR": "N", "CAPITAL": "yes", "NAME": "Tórshavn", "RANK": 4.000000, "PLACE": "city", "POPULATION": 20000.000000, "PRESENCE": "no" }, "geometry": { "type": "Point", "coordinates": [ -6.8, 62.03 ] } },
{ "type": "Feature", "properties": { "NAME_FR": "Suva", "PAYS_FR": "Îles Fiji", "LDIR": "E", "CAPITAL": "yes", "NAME": "Suva", "RANK": 2.000000, "PLACE": "city", "POPULATION": 177000.000000, "PRESENCE": "yes" }, "geometry": { "type": "Point", "coordinates": [ 178.44, -18.12 ] } },
{ "type": "Feature", "properties": { "NAME_FR": "Cayenne", "PAYS_FR": "Guyane", "LDIR": null, "CAPITAL": "yes", "NAME": "Cayenne", "RANK": 5.000000, "PLACE": "city", "POPULATION": 67000.000000, "PRESENCE": "no" }, "geometry": { "type": "Point", "coordinates": [ -52.33, 4.93 ] } },
{ "type": "Feature", "properties": { "NAME_FR": "Papeete", "PAYS_FR": "Polynésie française", "LDIR": null, "CAPITAL": "yes", "NAME": "Papeete", "RANK": 5.000000, "PLACE": "city", "POPULATION": 137000.000000, "PRESENCE": "no" }, "geometry": { "type": "Point", "coordinates": [ -149.57, -17.53 ] } },
{ "type": "Feature", "properties": { "NAME_FR": "Banjul", "PAYS_FR": "Gambie", "LDIR": "W", "CAPITAL": "yes", "NAME": "Banjul", "RANK": 1.000000, "PLACE": "city", "POPULATION": 506000.000000, "PRESENCE": "no" }, "geometry": { "type": "Point", "coordinates": [ -16.6, 13.45 ] } },
{ "type": "Feature", "properties": { "NAME_FR": "Gibraltar", "PAYS_FR": "Gibraltar", "LDIR": "E", "CAPITAL": "yes", "NAME": "Gibraltar", "RANK": 5.000000, "PLACE": "city", "POPULATION": 29000.000000, "PRESENCE": "no" }, "geometry": { "type": "Point", "coordinates": [ -5.35, 36.14 ] } },
{ "type": "Feature", "properties": { "NAME_FR": "Nuuk", "PAYS_FR": "Groenland", "LDIR": null, "CAPITAL": "yes", "NAME": "Nuuk (Godthb)", "RANK": 4.000000, "PLACE": "city", "POPULATION": 16000.000000, "PRESENCE": "no" }, "geometry": { "type": "Point", "coordinates": [ -51.73, 64.18 ] } },
{ "type": "Feature", "properties": { "NAME_FR": "Saint-Georges", "PAYS_FR": "Grenade", "LDIR": "W", "CAPITAL": "yes", "NAME": "St.George's", "RANK": 4.000000, "PLACE": "city", "POPULATION": 41000.000000, "PRESENCE": "no" }, "geometry": { "type": "Point", "coordinates": [ -61.74, 12.06 ] } },
{ "type": "Feature", "properties": { "NAME_FR": "Basse-Terre", "PAYS_FR": "Guadeloupe", "LDIR": null, "CAPITAL": "yes", "NAME": "Basse-Terre", "RANK": 5.000000, "PLACE": "city", "POPULATION": 13000.000000, "PRESENCE": "no" }, "geometry": { "type": "Point", "coordinates": [ -61.72, 16.0 ] } },
{ "type": "Feature", "properties": { "NAME_FR": "Guatemala", "PAYS_FR": "Guatemala", "LDIR": "W", "CAPITAL": "yes", "NAME": "Guatemala City", "RANK": 3.000000, "PLACE": "city", "POPULATION": 1168000.000000, "PRESENCE": "yes" }, "geometry": { "type": "Point", "coordinates": [ -90.52, 14.63 ] } },
{ "type": "Feature", "properties": { "NAME_FR": "Conakry", "PAYS_FR": "Guinée", "LDIR": "W", "CAPITAL": "yes", "NAME": "Conakry", "RANK": 2.000000, "PLACE": "city", "POPULATION": 1786000.000000, "PRESENCE": "yes" }, "geometry": { "type": "Point", "coordinates": [ -13.71, 9.51 ] } },
{ "type": "Feature", "properties": { "NAME_FR": "Bissau", "PAYS_FR": "Guinée-Bissau", "LDIR": "W", "CAPITAL": "yes", "NAME": "Bissau", "RANK": 2.000000, "PLACE": "city", "POPULATION": 423000.000000, "PRESENCE": "yes" }, "geometry": { "type": "Point", "coordinates": [ -15.63, 11.88 ] } },
{ "type": "Feature", "properties": { "NAME_FR": "Georgetown", "PAYS_FR": "Guyane", "LDIR": "NE", "CAPITAL": "yes", "NAME": "Georgetown", "RANK": 3.000000, "PLACE": "city", "POPULATION": 127000.000000, "PRESENCE": "no" }, "geometry": { "type": "Point", "coordinates": [ -58.16, 6.79 ] } },
{ "type": "Feature", "properties": { "NAME_FR": "Vatican", "PAYS_FR": "Saint-Siège", "LDIR": "N", "CAPITAL": "yes", "NAME": "Vatican City", "RANK": 4.000000, "PLACE": "city", "POPULATION": 921.000000, "PRESENCE": "yes" }, "geometry": { "type": "Point", "coordinates": [ 12.45, 41.9 ] } },
{ "type": "Feature", "properties": { "NAME_FR": "Douglas", "PAYS_FR": "Île de Man", "LDIR": null, "CAPITAL": "yes", "NAME": "Douglas", "RANK": 5.000000, "PLACE": "city", "POPULATION": 27000.000000, "PRESENCE": "no" }, "geometry": { "type": "Point", "coordinates": [ -4.48, 54.15 ] } },
{ "type": "Feature", "properties": { "NAME_FR": "Jérusalem", "PAYS_FR": "Israël", "LDIR": "E", "CAPITAL": "yes", "NAME": "Jerusalem", "RANK": 2.000000, "PLACE": "city", "POPULATION": 791000.000000, "PRESENCE": "yes" }, "geometry": { "type": "Point", "coordinates": [ 35.22, 31.78 ] } },
{ "type": "Feature", "properties": { "NAME_FR": "Rome", "PAYS_FR": "Italie", "LDIR": "SW", "CAPITAL": "yes", "NAME": "Rome", "RANK": 1.000000, "PLACE": "city", "POPULATION": 3298000.000000, "PRESENCE": "yes" }, "geometry": { "type": "Point", "coordinates": [ 12.5, 41.89 ] } },
{ "type": "Feature", "properties": { "NAME_FR": "Kingston", "PAYS_FR": "Jamaïque", "LDIR": "E", "CAPITAL": "yes", "NAME": "Kingston", "RANK": 3.000000, "PLACE": "city", "POPULATION": 571000.000000, "PRESENCE": "yes" }, "geometry": { "type": "Point", "coordinates": [ -76.8, 17.99 ] } },
{ "type": "Feature", "properties": { "NAME_FR": "Astana", "PAYS_FR": "Kazakhstan", "LDIR": "E", "CAPITAL": "yes", "NAME": "Astana", "RANK": 1.000000, "PLACE": "city", "POPULATION": 664000.000000, "PRESENCE": "yes" }, "geometry": { "type": "Point", "coordinates": [ 71.47, 51.17 ] } },
{ "type": "Feature", "properties": { "NAME_FR": "Tarawa", "PAYS_FR": "Kiribati", "LDIR": null, "CAPITAL": "yes", "NAME": "Tarawa", "RANK": 4.000000, "PLACE": "city", "POPULATION": 44000.000000, "PRESENCE": "no" }, "geometry": { "type": "Point", "coordinates": [ 173.0, 1.5 ] } },
{ "type": "Feature", "properties": { "NAME_FR": "Maseru", "PAYS_FR": "Lesotho", "LDIR": "E", "CAPITAL": "yes", "NAME": "Maseru", "RANK": 3.000000, "PLACE": "city", "POPULATION": 239000.000000, "PRESENCE": "no" }, "geometry": { "type": "Point", "coordinates": [ 27.48, -29.32 ] } },
{ "type": "Feature", "properties": { "NAME_FR": "Vaduz", "PAYS_FR": "Liechtenstein", "LDIR": "E", "CAPITAL": "yes", "NAME": "Vaduz", "RANK": 3.000000, "PLACE": "city", "POPULATION": 5000.000000, "PRESENCE": "no" }, "geometry": { "type": "Point", "coordinates": [ 9.53, 47.14 ] } },
{ "type": "Feature", "properties": { "NAME_FR": "Vilnius", "PAYS_FR": "Lithuanie", "LDIR": "E", "CAPITAL": "yes", "NAME": "Vilnius", "RANK": 2.000000, "PLACE": "city", "POPULATION": 546000.000000, "PRESENCE": "yes" }, "geometry": { "type": "Point", "coordinates": [ 25.32, 54.67 ] } },
{ "type": "Feature", "properties": { "NAME_FR": "Luxembourg", "PAYS_FR": "Luxembourg", "LDIR": "E", "CAPITAL": "yes", "NAME": "Luxembourg", "RANK": 2.000000, "PLACE": "city", "POPULATION": 94000.000000, "PRESENCE": "yes" }, "geometry": { "type": "Point", "coordinates": [ 6.1, 49.62 ] } },
{ "type": "Feature", "properties": { "NAME_FR": "Lilongwe", "PAYS_FR": "Malawi", "LDIR": "W", "CAPITAL": "yes", "NAME": "Lilongwe", "RANK": 1.000000, "PLACE": "city", "POPULATION": 772000.000000, "PRESENCE": "no" }, "geometry": { "type": "Point", "coordinates": [ 33.78, -13.98 ] } },
{ "type": "Feature", "properties": { "NAME_FR": "Malé", "PAYS_FR": "Maldives", "LDIR": null, "CAPITAL": "yes", "NAME": "Male", "RANK": 3.000000, "PLACE": "city", "POPULATION": 132000.000000, "PRESENCE": "no" }, "geometry": { "type": "Point", "coordinates": [ 73.5, 4.17 ] } },
{ "type": "Feature", "properties": { "NAME_FR": "Bamako", "PAYS_FR": "Mali", "LDIR": "W", "CAPITAL": "yes", "NAME": "Bamako", "RANK": 2.000000, "PLACE": "city", "POPULATION": 2037000.000000, "PRESENCE": "yes" }, "geometry": { "type": "Point", "coordinates": [ -8.0, 12.65 ] } },
{ "type": "Feature", "properties": { "NAME_FR": "La Valette", "PAYS_FR": "Malte", "LDIR": "N", "CAPITAL": "yes", "NAME": "Valletta", "RANK": 2.000000, "PLACE": "city", "POPULATION": 198000.000000, "PRESENCE": "yes" }, "geometry": { "type": "Point", "coordinates": [ 14.51, 35.9 ] } },
{ "type": "Feature", "properties": { "NAME_FR": "Majuro", "PAYS_FR": "Îles Marshall", "LDIR": null, "CAPITAL": "yes", "NAME": "Majuro", "RANK": 4.000000, "PLACE": "city", "POPULATION": 31000.000000, "PRESENCE": "no" }, "geometry": { "type": "Point", "coordinates": [ 171.13, 7.08 ] } },
{ "type": "Feature", "properties": { "NAME_FR": "Fort-de-France", "PAYS_FR": "Martinique", "LDIR": "E", "CAPITAL": "yes", "NAME": "Fort-de-France", "RANK": 5.000000, "PLACE": "city", "POPULATION": 87000.000000, "PRESENCE": "no" }, "geometry": { "type": "Point", "coordinates": [ -61.08, 14.6 ] } },
{ "type": "Feature", "properties": { "NAME_FR": "Nouakchott", "PAYS_FR": "Mauritanie", "LDIR": "W", "CAPITAL": "yes", "NAME": "Nouakchott", "RANK": 2.000000, "PLACE": "city", "POPULATION": 786000.000000, "PRESENCE": "yes" }, "geometry": { "type": "Point", "coordinates": [ -15.95, 18.1 ] } },
{ "type": "Feature", "properties": { "NAME_FR": "Port Louis", "PAYS_FR": "Maurice", "LDIR": "NW", "CAPITAL": "yes", "NAME": "Port Louis", "RANK": 2.000000, "PLACE": "city", "POPULATION": 151000.000000, "PRESENCE": "yes" }, "geometry": { "type": "Point", "coordinates": [ 57.5, -20.17 ] } },
{ "type": "Feature", "properties": { "NAME_FR": "Palikir", "PAYS_FR": "Micronésie", "LDIR": null, "CAPITAL": "yes", "NAME": "Palikir", "RANK": 4.000000, "PLACE": "city", "POPULATION": 7000.000000, "PRESENCE": "no" }, "geometry": { "type": "Point", "coordinates": [ 158.15, 6.92 ] } },
{ "type": "Feature", "properties": { "NAME_FR": "Monaco", "PAYS_FR": "Monaco", "LDIR": "N", "CAPITAL": "yes", "NAME": "Monaco", "RANK": 3.000000, "PLACE": "city", "POPULATION": 35000.000000, "PRESENCE": "yes" }, "geometry": { "type": "Point", "coordinates": [ 7.44, 43.73 ] } },
{ "type": "Feature", "properties": { "NAME_FR": "Podgorica", "PAYS_FR": "Monténégro", "LDIR": "W", "CAPITAL": "yes", "NAME": "Podgorica", "RANK": 2.000000, "PLACE": "city", "POPULATION": 156000.000000, "PRESENCE": "yes" }, "geometry": { "type": "Point", "coordinates": [ 19.26, 42.44 ] } },
{ "type": "Feature", "properties": { "NAME_FR": "Brades Estate", "PAYS_FR": "Montserrat", "LDIR": null, "CAPITAL": "yes", "NAME": "Brades Estate", "RANK": 4.000000, "PLACE": "city", "POPULATION": 1000.000000, "PRESENCE": "no" }, "geometry": { "type": "Point", "coordinates": [ -62.2, 16.78 ] } },
{ "type": "Feature", "properties": { "NAME_FR": "Rabat", "PAYS_FR": "Maroc", "LDIR": null, "CAPITAL": "yes", "NAME": "Rabat", "RANK": 1.000000, "PLACE": "city", "POPULATION": 1843000.000000, "PRESENCE": "yes" }, "geometry": { "type": "Point", "coordinates": [ -6.83, 34.03 ] } },
{ "type": "Feature", "properties": { "NAME_FR": "Maputo", "PAYS_FR": "Mozambique", "LDIR": "E", "CAPITAL": "yes", "NAME": "Maputo", "RANK": 2.000000, "PLACE": "city", "POPULATION": 1150000.000000, "PRESENCE": "yes" }, "geometry": { "type": "Point", "coordinates": [ 32.59, -25.97 ] } },
{ "type": "Feature", "properties": { "NAME_FR": "Naypyidaw", "PAYS_FR": "Birmanie", "LDIR": "E", "CAPITAL": "yes", "NAME": "Nay Pyi Taw", "RANK": 1.000000, "PLACE": "city", "POPULATION": 1060000.000000, "PRESENCE": "no" }, "geometry": { "type": "Point", "coordinates": [ 96.12, 19.75 ] } },
{ "type": "Feature", "properties": { "NAME_FR": "Windhoek", "PAYS_FR": "Namibie", "LDIR": "E", "CAPITAL": "yes", "NAME": "Windhoek", "RANK": 2.000000, "PLACE": "city", "POPULATION": 380000.000000, "PRESENCE": "yes" }, "geometry": { "type": "Point", "coordinates": [ 17.08, -22.57 ] } },
{ "type": "Feature", "properties": { "NAME_FR": "Nauru", "PAYS_FR": "Nauru", "LDIR": null, "CAPITAL": "yes", "NAME": "Nauru", "RANK": 3.000000, "PLACE": "city", "POPULATION": 10000.000000, "PRESENCE": "no" }, "geometry": { "type": "Point", "coordinates": [ 166.91, -0.53 ] } },
{ "type": "Feature", "properties": { "NAME_FR": "La Haye", "PAYS_FR": "Pays-Bas", "LDIR": null, "CAPITAL": "yes", "NAME": "The Hague", "RANK": 2.000000, "PLACE": "city", "POPULATION": 635000.000000, "PRESENCE": "yes" }, "geometry": { "type": "Point", "coordinates": [ 4.28, 52.08 ] } },
{ "type": "Feature", "properties": { "NAME_FR": "Willemstad", "PAYS_FR": "Curaçao", "LDIR": null, "CAPITAL": "yes", "NAME": "Willemstad", "RANK": 5.000000, "PLACE": "city", "POPULATION": 115000.000000, "PRESENCE": "no" }, "geometry": { "type": "Point", "coordinates": [ -68.93, 12.1 ] } },
{ "type": "Feature", "properties": { "NAME_FR": "Nouméa", "PAYS_FR": "Nouvelle-Calédonie", "LDIR": null, "CAPITAL": "yes", "NAME": "Nouméa", "RANK": 5.000000, "PLACE": "city", "POPULATION": 157000.000000, "PRESENCE": "no" }, "geometry": { "type": "Point", "coordinates": [ 166.44, -22.27 ] } },
{ "type": "Feature", "properties": { "NAME_FR": "Niamey", "PAYS_FR": "Niger", "LDIR": "E", "CAPITAL": "yes", "NAME": "Niamey", "RANK": 2.000000, "PLACE": "city", "POPULATION": 1297000.000000, "PRESENCE": "yes" }, "geometry": { "type": "Point", "coordinates": [ 2.12, 13.52 ] } },
{ "type": "Feature", "properties": { "NAME_FR": "Abuja", "PAYS_FR": "Nigeria", "LDIR": "S", "CAPITAL": "yes", "NAME": "Abuja", "RANK": 2.000000, "PLACE": "city", "POPULATION": 2153000.000000, "PRESENCE": "yes" }, "geometry": { "type": "Point", "coordinates": [ 7.46, 9.12 ] } },
{ "type": "Feature", "properties": { "NAME_FR": "Saipan", "PAYS_FR": "Îles Mariannes", "LDIR": null, "CAPITAL": "yes", "NAME": "Saipan", "RANK": 3.000000, "PLACE": "city", "POPULATION": 56000.000000, "PRESENCE": "no" }, "geometry": { "type": "Point", "coordinates": [ 145.45, 15.12 ] } },
{ "type": "Feature", "properties": { "NAME_FR": "Ramallah", "PAYS_FR": "Palestine", "LDIR": null, "CAPITAL": "yes", "NAME": "Ramallah", "RANK": 3.000000, "PLACE": "city", "POPULATION": 75000.000000, "PRESENCE": "no" }, "geometry": { "type": "Point", "coordinates": [ 35.2, 31.9 ] } },
{ "type": "Feature", "properties": { "NAME_FR": "Melekeok", "PAYS_FR": "Palaos", "LDIR": null, "CAPITAL": "yes", "NAME": "Melekeok", "RANK": 4.000000, "PLACE": "city", "POPULATION": 1000.000000, "PRESENCE": "no" }, "geometry": { "type": "Point", "coordinates": [ 134.63, 7.48 ] } },
{ "type": "Feature", "properties": { "NAME_FR": "Adamstown", "PAYS_FR": "Îles Pitcairn", "LDIR": null, "CAPITAL": "yes", "NAME": "Adamstown", "RANK": 4.000000, "PLACE": "city", "POPULATION": 67.000000, "PRESENCE": "no" }, "geometry": { "type": "Point", "coordinates": [ -130.08, -25.06 ] } },
{ "type": "Feature", "properties": { "NAME_FR": "San Juan", "PAYS_FR": "Porto Rico", "LDIR": null, "CAPITAL": "yes", "NAME": "San Juan", "RANK": 4.000000, "PLACE": "city", "POPULATION": 2475000.000000, "PRESENCE": "no" }, "geometry": { "type": "Point", "coordinates": [ -66.06, 18.41 ] } },
{ "type": "Feature", "properties": { "NAME_FR": "Chișinău", "PAYS_FR": "Moldavie", "LDIR": null, "CAPITAL": "yes", "NAME": "Chișinău", "RANK": 2.000000, "PLACE": "city", "POPULATION": 677000.000000, "PRESENCE": "yes" }, "geometry": { "type": "Point", "coordinates": [ 28.86, 47.0 ] } },
{ "type": "Feature", "properties": { "NAME_FR": "Saint-Denis", "PAYS_FR": "Réunion", "LDIR": "N", "CAPITAL": "yes", "NAME": "São Tomé", "RANK": 5.000000, "PLACE": "city", "POPULATION": 145000.000000, "PRESENCE": "no" }, "geometry": { "type": "Point", "coordinates": [ 55.45, -20.87 ] } },
{ "type": "Feature", "properties": { "NAME_FR": "Kigali", "PAYS_FR": "Rwanda", "LDIR": null, "CAPITAL": "yes", "NAME": "Kigali", "RANK": 2.000000, "PLACE": "city", "POPULATION": 1004000.000000, "PRESENCE": "yes" }, "geometry": { "type": "Point", "coordinates": [ 30.04, -1.96 ] } },
{ "type": "Feature", "properties": { "NAME_FR": "Jamestown", "PAYS_FR": "Sainte-Hélène", "LDIR": null, "CAPITAL": "yes", "NAME": "Jamestown", "RANK": 5.000000, "PLACE": "city", "POPULATION": 1000.000000, "PRESENCE": "no" }, "geometry": { "type": "Point", "coordinates": [ -5.73, -15.93 ] } },
{ "type": "Feature", "properties": { "NAME_FR": "Basseterre", "PAYS_FR": "Saint-Christophe-et-Niévès", "LDIR": null, "CAPITAL": "yes", "NAME": "Basseterre", "RANK": 4.000000, "PLACE": "city", "POPULATION": 12000.000000, "PRESENCE": "no" }, "geometry": { "type": "Point", "coordinates": [ -62.73, 17.31 ] } },
{ "type": "Feature", "properties": { "NAME_FR": "Castries", "PAYS_FR": "Sainte-Lucie", "LDIR": null, "CAPITAL": "yes", "NAME": "Castries", "RANK": 2.000000, "PLACE": "city", "POPULATION": 11092.000000, "PRESENCE": "yes" }, "geometry": { "type": "Point", "coordinates": [ -60.98, 14.03 ] } },
{ "type": "Feature", "properties": { "NAME_FR": "Saint-Pierre", "PAYS_FR": "Saint-Pierre-et-Miquelon", "LDIR": null, "CAPITAL": "yes", "NAME": "Saint-Pierre", "RANK": 5.000000, "PLACE": "city", "POPULATION": 5000.000000, "PRESENCE": "no" }, "geometry": { "type": "Point", "coordinates": [ -56.2, 46.8 ] } },
{ "type": "Feature", "properties": { "NAME_FR": "Kingstown", "PAYS_FR": "Saint-Vincent-et-les Grenadines", "LDIR": null, "CAPITAL": "yes", "NAME": "Kingstown", "RANK": 4.000000, "PLACE": "city", "POPULATION": 31000.000000, "PRESENCE": "no" }, "geometry": { "type": "Point", "coordinates": [ -61.23, 13.16 ] } },
{ "type": "Feature", "properties": { "NAME_FR": "Apia", "PAYS_FR": "Samoa", "LDIR": "W", "CAPITAL": "yes", "NAME": "Apia", "RANK": 4.000000, "PLACE": "city", "POPULATION": 37000.000000, "PRESENCE": "no" }, "geometry": { "type": "Point", "coordinates": [ -171.76, -13.83 ] } },
{ "type": "Feature", "properties": { "NAME_FR": "Saint-Marin", "PAYS_FR": "Saint-Marin", "LDIR": null, "CAPITAL": "yes", "NAME": "San Marino", "RANK": 4.000000, "PLACE": "city", "POPULATION": 4000.000000, "PRESENCE": "no" }, "geometry": { "type": "Point", "coordinates": [ 12.43, 43.94 ] } },
{ "type": "Feature", "properties": { "NAME_FR": "São Tomé", "PAYS_FR": "Sao Tomé-et-Principe", "LDIR": null, "CAPITAL": "yes", "NAME": "São Tomé", "RANK": 4.000000, "PLACE": "city", "POPULATION": 64000.000000, "PRESENCE": "no" }, "geometry": { "type": "Point", "coordinates": [ 6.73, 0.36 ] } },
{ "type": "Feature", "properties": { "NAME_FR": "Belgrade", "PAYS_FR": "Serbie", "LDIR": null, "CAPITAL": "yes", "NAME": "Beograd", "RANK": 2.000000, "PLACE": "city", "POPULATION": 1135000.000000, "PRESENCE": "yes" }, "geometry": { "type": "Point", "coordinates": [ 20.47, 44.81 ] } },
{ "type": "Feature", "properties": { "NAME_FR": "Victoria", "PAYS_FR": "Seychelles", "LDIR": null, "CAPITAL": "yes", "NAME": "Victoria", "RANK": 2.000000, "PLACE": "city", "POPULATION": 27000.000000, "PRESENCE": "yes" }, "geometry": { "type": "Point", "coordinates": [ 55.45, -4.62 ] } },
{ "type": "Feature", "properties": { "NAME_FR": "Freetown", "PAYS_FR": "Sierra Leone", "LDIR": "W", "CAPITAL": "yes", "NAME": "Freetown", "RANK": 2.000000, "PLACE": "city", "POPULATION": 941000.000000, "PRESENCE": "no" }, "geometry": { "type": "Point", "coordinates": [ -13.23, 8.49 ] } },
{ "type": "Feature", "properties": { "NAME_FR": "Singapour", "PAYS_FR": "Singapour", "LDIR": "W", "CAPITAL": "yes", "NAME": "Singapore", "RANK": 2.000000, "PLACE": "city", "POPULATION": 5188000.000000, "PRESENCE": "yes" }, "geometry": { "type": "Point", "coordinates": [ 103.85, 1.3 ] } },
{ "type": "Feature", "properties": { "NAME_FR": "Bratislava", "PAYS_FR": "Slovaquie", "LDIR": "E", "CAPITAL": "yes", "NAME": "Bratislava", "RANK": 2.000000, "PLACE": "city", "POPULATION": 434000.000000, "PRESENCE": "yes" }, "geometry": { "type": "Point", "coordinates": [ 17.13, 48.16 ] } },
{ "type": "Feature", "properties": { "NAME_FR": "Ljubljana", "PAYS_FR": "Slovénie", "LDIR": "W", "CAPITAL": "yes", "NAME": "Ljubljana", "RANK": 2.000000, "PLACE": "city", "POPULATION": 273000.000000, "PRESENCE": "yes" }, "geometry": { "type": "Point", "coordinates": [ 14.51, 46.06 ] } },
{ "type": "Feature", "properties": { "NAME_FR": "Honiara", "PAYS_FR": "Îles Salomon", "LDIR": "E", "CAPITAL": "yes", "NAME": "Honiara", "RANK": 4.000000, "PLACE": "city", "POPULATION": 68000.000000, "PRESENCE": "no" }, "geometry": { "type": "Point", "coordinates": [ 159.91, -9.43 ] } },
{ "type": "Feature", "properties": { "NAME_FR": "Bloemfontein", "PAYS_FR": "Afrique du Sud", "LDIR": "N", "CAPITAL": "yes", "NAME": "Bloemfontein", "RANK": 1.000000, "PLACE": "city", "POPULATION": 468000.000000, "PRESENCE": "no" }, "geometry": { "type": "Point", "coordinates": [ 26.2, -29.13 ] } },
{ "type": "Feature", "properties": { "NAME_FR": "Djouba", "PAYS_FR": "Soudan du Sud", "LDIR": null, "CAPITAL": "yes", "NAME": "Juba", "RANK": 2.000000, "PLACE": "city", "POPULATION": 269000.000000, "PRESENCE": "yes" }, "geometry": { "type": "Point", "coordinates": [ 31.58, 4.83 ] } },
{ "type": "Feature", "properties": { "NAME_FR": "Sri Jayawardenapura Kotte", "PAYS_FR": "Sri Lanka", "LDIR": null, "CAPITAL": "yes", "NAME": "Sri Jayewardenepura Kotte", "RANK": 1.000000, "PLACE": "city", "POPULATION": 126000.000000, "PRESENCE": "no" }, "geometry": { "type": "Point", "coordinates": [ 79.9, 6.9 ] } },
{ "type": "Feature", "properties": { "NAME_FR": "Paramaribo", "PAYS_FR": "Suriname", "LDIR": null, "CAPITAL": "yes", "NAME": "Paramaribo", "RANK": 2.000000, "PLACE": "city", "POPULATION": 278000.000000, "PRESENCE": "yes" }, "geometry": { "type": "Point", "coordinates": [ -55.2, 5.85 ] } },
{ "type": "Feature", "properties": { "NAME_FR": "Mbabane", "PAYS_FR": "Swaziland", "LDIR": null, "CAPITAL": "yes", "NAME": "Mbabane", "RANK": 1.000000, "PLACE": "city", "POPULATION": 66000.000000, "PRESENCE": "no" }, "geometry": { "type": "Point", "coordinates": [ 31.13, -26.32 ] } },
{ "type": "Feature", "properties": { "NAME_FR": "Berne", "PAYS_FR": "Suisse", "LDIR": "W", "CAPITAL": "yes", "NAME": "Bern", "RANK": 2.000000, "PLACE": "city", "POPULATION": 353000.000000, "PRESENCE": "yes" }, "geometry": { "type": "Point", "coordinates": [ 7.47, 46.92 ] } },
{ "type": "Feature", "properties": { "NAME_FR": "Skopje", "PAYS_FR": "Macédoine (ARYM)", "LDIR": "W", "CAPITAL": "yes", "NAME": "Skopje", "RANK": 2.000000, "PLACE": "city", "POPULATION": 499000.000000, "PRESENCE": "yes" }, "geometry": { "type": "Point", "coordinates": [ 21.46, 42.0 ] } },
{ "type": "Feature", "properties": { "NAME_FR": "Dili", "PAYS_FR": "Timor oriental", "LDIR": null, "CAPITAL": "yes", "NAME": "Dili", "RANK": 1.000000, "PLACE": "city", "POPULATION": 180000.000000, "PRESENCE": "no" }, "geometry": { "type": "Point", "coordinates": [ 125.58, -8.58 ] } },
{ "type": "Feature", "properties": { "NAME_FR": "Lomé", "PAYS_FR": "Togo", "LDIR": "W", "CAPITAL": "yes", "NAME": "Lomé", "RANK": 1.000000, "PLACE": "city", "POPULATION": 1524000.000000, "PRESENCE": "yes" }, "geometry": { "type": "Point", "coordinates": [ 1.35, 6.17 ] } },
{ "type": "Feature", "properties": { "NAME_FR": "Nuku'alofa", "PAYS_FR": "Tonga", "LDIR": null, "CAPITAL": "yes", "NAME": "Nuku'alofa", "RANK": 4.000000, "PLACE": "city", "POPULATION": 25000.000000, "PRESENCE": "no" }, "geometry": { "type": "Point", "coordinates": [ -175.22, -21.14 ] } },
{ "type": "Feature", "properties": { "NAME_FR": "Port-d'Espagne", "PAYS_FR": "Trinité-et-Tobago", "LDIR": "W", "CAPITAL": "yes", "NAME": "Port of Spain", "RANK": 3.000000, "PLACE": "city", "POPULATION": 66000.000000, "PRESENCE": "yes" }, "geometry": { "type": "Point", "coordinates": [ -61.52, 10.65 ] } },
{ "type": "Feature", "properties": { "NAME_FR": "Cockburn Town", "PAYS_FR": "Îles Turques-et-Caïques", "LDIR": null, "CAPITAL": "yes", "NAME": "Cockburn Town", "RANK": 4.000000, "PLACE": "city", "POPULATION": 7000.000000, "PRESENCE": "no" }, "geometry": { "type": "Point", "coordinates": [ -71.13, 21.47 ] } },
{ "type": "Feature", "properties": { "NAME_FR": "Funafuti", "PAYS_FR": "Tuvalu", "LDIR": "N", "CAPITAL": "yes", "NAME": "Funafuti", "RANK": 4.000000, "PLACE": "city", "POPULATION": 5000.000000, "PRESENCE": "no" }, "geometry": { "type": "Point", "coordinates": [ 179.21, -8.51 ] } },
{ "type": "Feature", "properties": { "NAME_FR": "Dodoma", "PAYS_FR": "Tanzanie", "LDIR": "E", "CAPITAL": "yes", "NAME": "Dodoma", "RANK": 1.000000, "PLACE": "city", "POPULATION": 226000.000000, "PRESENCE": "no" }, "geometry": { "type": "Point", "coordinates": [ 35.74, -6.17 ] } },
{ "type": "Feature", "properties": { "NAME_FR": "Charlotte Amalie", "PAYS_FR": "Îles Vierges des États-Unis", "LDIR": null, "CAPITAL": "yes", "NAME": "Charlotte Amalie", "RANK": 4.000000, "PLACE": "city", "POPULATION": 60000.000000, "PRESENCE": "no" }, "geometry": { "type": "Point", "coordinates": [ -64.93, 18.34 ] } },
{ "type": "Feature", "properties": { "NAME_FR": "Port Vila", "PAYS_FR": "Vanuatu", "LDIR": "W", "CAPITAL": "yes", "NAME": "Port Vila", "RANK": 2.000000, "PLACE": "city", "POPULATION": 47000.000000, "PRESENCE": "yes" }, "geometry": { "type": "Point", "coordinates": [ 168.32, -17.74 ] } },
{ "type": "Feature", "properties": { "NAME_FR": "Mata-Utu", "PAYS_FR": "Wallis et Futuna", "LDIR": "N", "CAPITAL": "yes", "NAME": "Matu-Utu", "RANK": 4.000000, "PLACE": "city", "POPULATION": 1000.000000, "PRESENCE": "no" }, "geometry": { "type": "Point", "coordinates": [ -176.14, -13.28 ] } },
{ "type": "Feature", "properties": { "NAME_FR": "Al Ain", "PAYS_FR": "Emirats arabes unis", "LDIR": null, "CAPITAL": "no", "NAME": "El Aain", "RANK": 4.000000, "PLACE": "city", "POPULATION": 237000.000000, "PRESENCE": "no" }, "geometry": { "type": "Point", "coordinates": [ -13.2, 27.15 ] } },
{ "type": "Feature", "properties": { "NAME_FR": "Buenos Aires", "PAYS_FR": "Argentine", "LDIR": "W", "CAPITAL": "yes", "NAME": "Buenos Aires", "RANK": 1.000000, "PLACE": "city", "POPULATION": 13076300.000000, "PRESENCE": "yes" }, "geometry": { "type": "Point", "coordinates": [ -58.37723, -34.61315 ] } },
{ "type": "Feature", "properties": { "NAME_FR": "Mexico", "PAYS_FR": "Mexique", "LDIR": "SW", "CAPITAL": "yes", "NAME": "Mexico City", "RANK": 1.000000, "PLACE": "city", "POPULATION": 12294193.000000, "PRESENCE": "yes" }, "geometry": { "type": "Point", "coordinates": [ -99.12766, 19.42847 ] } },
{ "type": "Feature", "properties": { "NAME_FR": "São Paulo", "PAYS_FR": "Brésil", "LDIR": "N", "CAPITAL": "no", "NAME": "Sao Paulo", "RANK": 1.000000, "PLACE": "city", "POPULATION": 10021295.000000, "PRESENCE": "yes" }, "geometry": { "type": "Point", "coordinates": [ -46.63611, -23.5475 ] } },
{ "type": "Feature", "properties": { "NAME_FR": "New York", "PAYS_FR": "États-Unis", "LDIR": "N", "CAPITAL": "no", "NAME": "New York", "RANK": 1.000000, "PLACE": "city", "POPULATION": 8008278.000000, "PRESENCE": "yes" }, "geometry": { "type": "Point", "coordinates": [ -74.00597, 40.71427 ] } },
{ "type": "Feature", "properties": { "NAME_FR": "Lima", "PAYS_FR": "Pérou", "LDIR": "N", "CAPITAL": "yes", "NAME": "Lima", "RANK": 1.000000, "PLACE": "city", "POPULATION": 7737002.000000, "PRESENCE": "yes" }, "geometry": { "type": "Point", "coordinates": [ -77.02824, -12.04318 ] } },
{ "type": "Feature", "properties": { "NAME_FR": "Bogota", "PAYS_FR": "Colombie", "LDIR": "N", "CAPITAL": "yes", "NAME": "Bogota", "RANK": 1.000000, "PLACE": "city", "POPULATION": 7102602.000000, "PRESENCE": "yes" }, "geometry": { "type": "Point", "coordinates": [ -74.08175, 4.60971 ] } },
{ "type": "Feature", "properties": { "NAME_FR": "Rio de Janeiro", "PAYS_FR": "Brésil", "LDIR": "N", "CAPITAL": "no", "NAME": "Rio de Janeiro", "RANK": 1.000000, "PLACE": "city", "POPULATION": 6023699.000000, "PRESENCE": "yes" }, "geometry": { "type": "Point", "coordinates": [ -43.2075, -22.90278 ] } },
{ "type": "Feature", "properties": { "NAME_FR": "Santiago", "PAYS_FR": "Chili", "LDIR": "W", "CAPITAL": "yes", "NAME": "Santiago", "RANK": 1.000000, "PLACE": "city", "POPULATION": 4837295.000000, "PRESENCE": "yes" }, "geometry": { "type": "Point", "coordinates": [ -70.56656, -33.42628 ] } },
{ "type": "Feature", "properties": { "NAME_FR": "Toronto", "PAYS_FR": "Canada", "LDIR": "N", "CAPITAL": "no", "NAME": "Toronto", "RANK": 1.000000, "PLACE": "city", "POPULATION": 4612191.000000, "PRESENCE": "yes" }, "geometry": { "type": "Point", "coordinates": [ -79.4163, 43.70011 ] } },
{ "type": "Feature", "properties": { "NAME_FR": "Los Angeles", "PAYS_FR": "États-Unis", "LDIR": "W", "CAPITAL": "no", "NAME": "Los Angeles", "RANK": 1.000000, "PLACE": "city", "POPULATION": 3694820.000000, "PRESENCE": "yes" }, "geometry": { "type": "Point", "coordinates": [ -118.24368, 34.05223 ] } },
{ "type": "Feature", "properties": { "NAME_FR": "Montréal", "PAYS_FR": "Canada", "LDIR": "W", "CAPITAL": "no", "NAME": "Montréal", "RANK": 1.000000, "PLACE": "city", "POPULATION": 3268513.000000, "PRESENCE": "yes" }, "geometry": { "type": "Point", "coordinates": [ -73.58781, 45.50884 ] } },
{ "type": "Feature", "properties": { "NAME_FR": "Caracas", "PAYS_FR": "Venezuela", "LDIR": "E", "CAPITAL": "yes", "NAME": "Caracas", "RANK": 1.000000, "PLACE": "city", "POPULATION": 3000000.000000, "PRESENCE": "yes" }, "geometry": { "type": "Point", "coordinates": [ -66.91667, 10.5 ] } },
{ "type": "Feature", "properties": { "NAME_FR": "Chicago", "PAYS_FR": "États-Unis", "LDIR": "N", "CAPITAL": "no", "NAME": "Chicago", "RANK": 2.000000, "PLACE": "city", "POPULATION": 2841952.000000, "PRESENCE": "yes" }, "geometry": { "type": "Point", "coordinates": [ -87.65005, 41.85003 ] } },
{ "type": "Feature", "properties": { "NAME_FR": "Brasilia", "PAYS_FR": "Brésil", "LDIR": "S", "CAPITAL": "yes", "NAME": "Brasilia", "RANK": 1.000000, "PLACE": "city", "POPULATION": 2207718.000000, "PRESENCE": "yes" }, "geometry": { "type": "Point", "coordinates": [ -47.92972, -15.77972 ] } },
{ "type": "Feature", "properties": { "NAME_FR": "La Havane", "PAYS_FR": "Cuba", "LDIR": "W", "CAPITAL": "yes", "NAME": "Havana", "RANK": 1.000000, "PLACE": "city", "POPULATION": 2163824.000000, "PRESENCE": "yes" }, "geometry": { "type": "Point", "coordinates": [ -82.38304, 23.13302 ] } },
{ "type": "Feature", "properties": { "NAME_FR": "Houston", "PAYS_FR": "États-Unis", "LDIR": "E", "CAPITAL": "no", "NAME": "Houston", "RANK": 2.000000, "PLACE": "city", "POPULATION": 2027712.000000, "PRESENCE": "yes" }, "geometry": { "type": "Point", "coordinates": [ -95.36327, 29.76328 ] } },
{ "type": "Feature", "properties": { "NAME_FR": "Vancouver", "PAYS_FR": "Canada", "LDIR": "E", "CAPITAL": "no", "NAME": "Vancouver", "RANK": 1.000000, "PLACE": "city", "POPULATION": 1837969.000000, "PRESENCE": "yes" }, "geometry": { "type": "Point", "coordinates": [ -123.11934, 49.24966 ] } },
{ "type": "Feature", "properties": { "NAME_FR": "Guadalajara", "PAYS_FR": "Mexique", "LDIR": "N", "CAPITAL": "no", "NAME": "Guadalajara", "RANK": 4.000000, "PLACE": "city", "POPULATION": 1640589.000000, "PRESENCE": "no" }, "geometry": { "type": "Point", "coordinates": [ -103.33333, 20.66667 ] } },
{ "type": "Feature", "properties": { "NAME_FR": "Philadelphie", "PAYS_FR": "États-Unis", "LDIR": "N", "CAPITAL": "no", "NAME": "Philadelphia", "RANK": 4.000000, "PLACE": "city", "POPULATION": 1517550.000000, "PRESENCE": "no" }, "geometry": { "type": "Point", "coordinates": [ -75.16379, 39.95234 ] } },
{ "type": "Feature", "properties": { "NAME_FR": "Asuncion", "PAYS_FR": "Paraguay", "LDIR": "W", "CAPITAL": "yes", "NAME": "Asuncion", "RANK": 1.000000, "PLACE": "city", "POPULATION": 1482200.000000, "PRESENCE": "yes" }, "geometry": { "type": "Point", "coordinates": [ -57.63591, -25.30066 ] } },
{ "type": "Feature", "properties": { "NAME_FR": "Quito", "PAYS_FR": "Équateur", "LDIR": "W", "CAPITAL": "yes", "NAME": "Quito", "RANK": 1.000000, "PLACE": "city", "POPULATION": 1399814.000000, "PRESENCE": "yes" }, "geometry": { "type": "Point", "coordinates": [ -78.52495, -0.22985 ] } },
{ "type": "Feature", "properties": { "NAME_FR": "Montevideo", "PAYS_FR": "Uruguay", "LDIR": "S", "CAPITAL": "yes", "NAME": "Montevideo", "RANK": 1.000000, "PLACE": "city", "POPULATION": 1270737.000000, "PRESENCE": "yes" }, "geometry": { "type": "Point", "coordinates": [ -56.16735, -34.83346 ] } },
{ "type": "Feature", "properties": { "NAME_FR": "Dallas", "PAYS_FR": "États-Unis", "LDIR": "S", "CAPITAL": "no", "NAME": "Dallas", "RANK": 4.000000, "PLACE": "city", "POPULATION": 1211704.000000, "PRESENCE": "no" }, "geometry": { "type": "Point", "coordinates": [ -96.80667, 32.78306 ] } },
{ "type": "Feature", "properties": { "NAME_FR": "La Paz", "PAYS_FR": "Bolivie", "LDIR": "N", "CAPITAL": "yes", "NAME": "La Paz", "RANK": 1.000000, "PLACE": "city", "POPULATION": 812799.000000, "PRESENCE": "yes" }, "geometry": { "type": "Point", "coordinates": [ -68.15, -16.5 ] } },
{ "type": "Feature", "properties": { "NAME_FR": "San Francisco", "PAYS_FR": "États-Unis", "LDIR": "N", "CAPITAL": "no", "NAME": "San Francisco", "RANK": 1.000000, "PLACE": "city", "POPULATION": 732072.000000, "PRESENCE": "yes" }, "geometry": { "type": "Point", "coordinates": [ -122.44151, 37.76746 ] } },
{ "type": "Feature", "properties": { "NAME_FR": "Boston", "PAYS_FR": "États-Unis", "LDIR": "N", "CAPITAL": "no", "NAME": "Boston", "RANK": 1.000000, "PLACE": "city", "POPULATION": 589141.000000, "PRESENCE": "yes" }, "geometry": { "type": "Point", "coordinates": [ -71.05977, 42.35843 ] } },
{ "type": "Feature", "properties": { "NAME_FR": "Seattle", "PAYS_FR": "États-Unis", "LDIR": "E", "CAPITAL": "no", "NAME": "Seattle", "RANK": 4.000000, "PLACE": "city", "POPULATION": 569369.000000, "PRESENCE": "no" }, "geometry": { "type": "Point", "coordinates": [ -122.33207, 47.60621 ] } },
{ "type": "Feature", "properties": { "NAME_FR": "Denver", "PAYS_FR": "États-Unis", "LDIR": "S", "CAPITAL": "no", "NAME": "Denver", "RANK": 4.000000, "PLACE": "city", "POPULATION": 554636.000000, "PRESENCE": "no" }, "geometry": { "type": "Point", "coordinates": [ -104.9847, 39.73915 ] } },
{ "type": "Feature", "properties": { "NAME_FR": "Washington", "PAYS_FR": "États-Unis", "LDIR": "N", "CAPITAL": "yes", "NAME": "Washington", "RANK": 1.000000, "PLACE": "city", "POPULATION": 552433.000000, "PRESENCE": "yes" }, "geometry": { "type": "Point", "coordinates": [ -77.03637, 38.89511 ] } },
{ "type": "Feature", "properties": { "NAME_FR": "Atlanta", "PAYS_FR": "États-Unis", "LDIR": "N", "CAPITAL": "no", "NAME": "Atlanta", "RANK": 2.000000, "PLACE": "city", "POPULATION": 422908.000000, "PRESENCE": "yes" }, "geometry": { "type": "Point", "coordinates": [ -84.38798, 33.749 ] } },
{ "type": "Feature", "properties": { "NAME_FR": "Miami", "PAYS_FR": "États-Unis", "LDIR": "N", "CAPITAL": "no", "NAME": "Miami", "RANK": 2.000000, "PLACE": "city", "POPULATION": 382894.000000, "PRESENCE": "yes" }, "geometry": { "type": "Point", "coordinates": [ -80.19366, 25.77427 ] } },
{ "type": "Feature", "properties": { "NAME_FR": "Salvador", "PAYS_FR": "Brésil", "LDIR": "W", "CAPITAL": "no", "NAME": "Salvador", "RANK": 4.000000, "PLACE": "city", "POPULATION": 2711840.000000, "PRESENCE": "no" }, "geometry": { "type": "Point", "coordinates": [ -38.51083, -12.97111 ] } },
{ "type": "Feature", "properties": { "NAME_FR": "Fortaleza", "PAYS_FR": "Brésil", "LDIR": "W", "CAPITAL": "no", "NAME": "Fortaleza", "RANK": 4.000000, "PLACE": "city", "POPULATION": 2400000.000000, "PRESENCE": "no" }, "geometry": { "type": "Point", "coordinates": [ -38.54306, -3.71722 ] } },
{ "type": "Feature", "properties": { "NAME_FR": "Cali", "PAYS_FR": "Colombie", "LDIR": "E", "CAPITAL": "no", "NAME": "Cali", "RANK": 4.000000, "PLACE": "city", "POPULATION": 2392877.000000, "PRESENCE": "no" }, "geometry": { "type": "Point", "coordinates": [ -76.5225, 3.43722 ] } },
{ "type": "Feature", "properties": { "NAME_FR": "Belo Horizonte", "PAYS_FR": "Brésil", "LDIR": "S", "CAPITAL": "no", "NAME": "Belo Horizonte", "RANK": 4.000000, "PLACE": "city", "POPULATION": 2373224.000000, "PRESENCE": "no" }, "geometry": { "type": "Point", "coordinates": [ -43.93778, -19.92083 ] } },
{ "type": "Feature", "properties": { "NAME_FR": "Maracaibo", "PAYS_FR": "Venezuela", "LDIR": "N", "CAPITAL": "no", "NAME": "Maracaibo", "RANK": 4.000000, "PLACE": "city", "POPULATION": 2225000.000000, "PRESENCE": "no" }, "geometry": { "type": "Point", "coordinates": [ -71.64056, 10.63167 ] } },
{ "type": "Feature", "properties": { "NAME_FR": "Saint-Domingue", "PAYS_FR": "République dominicaine", "LDIR": "E", "CAPITAL": "yes", "NAME": "Santo Domingo", "RANK": 2.000000, "PLACE": "city", "POPULATION": 2201941.000000, "PRESENCE": "yes" }, "geometry": { "type": "Point", "coordinates": [ -69.98857, 18.50012 ] } },
{ "type": "Feature", "properties": { "NAME_FR": "Medellín", "PAYS_FR": "Colombie", "LDIR": "N", "CAPITAL": "no", "NAME": "Medellin", "RANK": 4.000000, "PLACE": "city", "POPULATION": 1999979.000000, "PRESENCE": "no" }, "geometry": { "type": "Point", "coordinates": [ -75.53611, 6.29139 ] } },
{ "type": "Feature", "properties": { "NAME_FR": "Guayaquil", "PAYS_FR": "Équateur", "LDIR": "N", "CAPITAL": "no", "NAME": "Guayaquil", "RANK": 4.000000, "PLACE": "city", "POPULATION": 1952029.000000, "PRESENCE": "no" }, "geometry": { "type": "Point", "coordinates": [ -79.9, -2.16667 ] } },
{ "type": "Feature", "properties": { "NAME_FR": "Curitiba", "PAYS_FR": "Brésil", "LDIR": "N", "CAPITAL": "no", "NAME": "Curitiba", "RANK": 4.000000, "PLACE": "city", "POPULATION": 1718421.000000, "PRESENCE": "no" }, "geometry": { "type": "Point", "coordinates": [ -49.27306, -25.42778 ] } },
{ "type": "Feature", "properties": { "NAME_FR": "Manaus", "PAYS_FR": "Brésil", "LDIR": "N", "CAPITAL": "no", "NAME": "Manaus", "RANK": 4.000000, "PLACE": "city", "POPULATION": 1598210.000000, "PRESENCE": "no" }, "geometry": { "type": "Point", "coordinates": [ -60.025, -3.10194 ] } },
{ "type": "Feature", "properties": { "NAME_FR": "Ciudad Juárez", "PAYS_FR": "Mexique", "LDIR": "SE", "CAPITAL": "no", "NAME": "Juarez", "RANK": 4.000000, "PLACE": "city", "POPULATION": 1512354.000000, "PRESENCE": "no" }, "geometry": { "type": "Point", "coordinates": [ -106.48333, 31.73333 ] } },
{ "type": "Feature", "properties": { "NAME_FR": "Recife", "PAYS_FR": "Brésil", "LDIR": "W", "CAPITAL": "no", "NAME": "Recife", "RANK": 2.000000, "PLACE": "city", "POPULATION": 1478098.000000, "PRESENCE": "yes" }, "geometry": { "type": "Point", "coordinates": [ -34.88111, -8.05389 ] } },
{ "type": "Feature", "properties": { "NAME_FR": "Córdoba", "PAYS_FR": "Argentine", "LDIR": "N", "CAPITAL": "no", "NAME": "Cordoba", "RANK": 4.000000, "PLACE": "city", "POPULATION": 1428214.000000, "PRESENCE": "no" }, "geometry": { "type": "Point", "coordinates": [ -64.18333, -31.4 ] } },
{ "type": "Feature", "properties": { "NAME_FR": "Belém", "PAYS_FR": "Brésil", "LDIR": "S", "CAPITAL": "no", "NAME": "Belem", "RANK": 4.000000, "PLACE": "city", "POPULATION": 1407737.000000, "PRESENCE": "no" }, "geometry": { "type": "Point", "coordinates": [ -48.50444, -1.45583 ] } },
{ "type": "Feature", "properties": { "NAME_FR": "Barranquilla", "PAYS_FR": "Colombie", "LDIR": "S", "CAPITAL": "no", "NAME": "Barranquilla", "RANK": 4.000000, "PLACE": "city", "POPULATION": 1380425.000000, "PRESENCE": "no" }, "geometry": { "type": "Point", "coordinates": [ -74.79639, 10.96389 ] } },
{ "type": "Feature", "properties": { "NAME_FR": "Tijuana", "PAYS_FR": "Mexique", "LDIR": "S", "CAPITAL": "no", "NAME": "Tijuana", "RANK": 4.000000, "PLACE": "city", "POPULATION": 1376457.000000, "PRESENCE": "no" }, "geometry": { "type": "Point", "coordinates": [ -117.01667, 32.53333 ] } },
{ "type": "Feature", "properties": { "NAME_FR": "Porto Alegre", "PAYS_FR": "Brésil", "LDIR": "W", "CAPITAL": "no", "NAME": "Porto Alegre", "RANK": 4.000000, "PLACE": "city", "POPULATION": 1372741.000000, "PRESENCE": "no" }, "geometry": { "type": "Point", "coordinates": [ -51.23, -30.03306 ] } },
{ "type": "Feature", "properties": { "NAME_FR": "Santa Cruz de la Sierra", "PAYS_FR": "Bolivie", "LDIR": "N", "CAPITAL": "no", "NAME": "Santa Cruz", "RANK": 4.000000, "PLACE": "city", "POPULATION": 1364389.000000, "PRESENCE": "no" }, "geometry": { "type": "Point", "coordinates": [ -63.16667, -17.8 ] } },
{ "type": "Feature", "properties": { "NAME_FR": "Phoenix", "PAYS_FR": "États-Unis", "LDIR": "E", "CAPITAL": "no", "NAME": "Phoenix", "RANK": 4.000000, "PLACE": "city", "POPULATION": 1321045.000000, "PRESENCE": "no" }, "geometry": { "type": "Point", "coordinates": [ -112.07404, 33.44838 ] } },
{ "type": "Feature", "properties": { "NAME_FR": "San Antonio", "PAYS_FR": "États-Unis", "LDIR": "N", "CAPITAL": "no", "NAME": "San Antonio", "RANK": 4.000000, "PLACE": "city", "POPULATION": 1256810.000000, "PRESENCE": "no" }, "geometry": { "type": "Point", "coordinates": [ -98.49363, 29.42412 ] } },
{ "type": "Feature", "properties": { "NAME_FR": "Port-au-Prince", "PAYS_FR": "Haïti", "LDIR": "W", "CAPITAL": "yes", "NAME": "Port-au-Prince", "RANK": 2.000000, "PLACE": "city", "POPULATION": 1234742.000000, "PRESENCE": "yes" }, "geometry": { "type": "Point", "coordinates": [ -72.335, 18.53917 ] } },
{ "type": "Feature", "properties": { "NAME_FR": "San Diego", "PAYS_FR": "États-Unis", "LDIR": "N", "CAPITAL": "no", "NAME": "San Diego", "RANK": 4.000000, "PLACE": "city", "POPULATION": 1223400.000000, "PRESENCE": "no" }, "geometry": { "type": "Point", "coordinates": [ -117.15726, 32.71533 ] } },
{ "type": "Feature", "properties": { "NAME_FR": "Rosario", "PAYS_FR": "Argentine", "LDIR": "N", "CAPITAL": "no", "NAME": "Rosario", "RANK": 4.000000, "PLACE": "city", "POPULATION": 1173533.000000, "PRESENCE": "no" }, "geometry": { "type": "Point", "coordinates": [ -60.66639, -32.95111 ] } },
{ "type": "Feature", "properties": { "NAME_FR": "Goiânia", "PAYS_FR": "Brésil", "LDIR": "W", "CAPITAL": "no", "NAME": "Goiania", "RANK": 4.000000, "PLACE": "city", "POPULATION": 1171195.000000, "PRESENCE": "no" }, "geometry": { "type": "Point", "coordinates": [ -49.25389, -16.67861 ] } },
{ "type": "Feature", "properties": { "NAME_FR": "Monterrey", "PAYS_FR": "Mexique", "LDIR": "S", "CAPITAL": "no", "NAME": "Monterrey", "RANK": 4.000000, "PLACE": "city", "POPULATION": 1122874.000000, "PRESENCE": "no" }, "geometry": { "type": "Point", "coordinates": [ -100.31667, 25.66667 ] } },
{ "type": "Feature", "properties": { "NAME_FR": "León", "PAYS_FR": "Mexique", "LDIR": "N", "CAPITAL": "no", "NAME": "Leon", "RANK": 4.000000, "PLACE": "city", "POPULATION": 1114626.000000, "PRESENCE": "no" }, "geometry": { "type": "Point", "coordinates": [ -101.66667, 21.11667 ] } },
{ "type": "Feature", "properties": { "NAME_FR": "Calgary", "PAYS_FR": "Canada", "LDIR": "S", "CAPITAL": "no", "NAME": "Calgary", "RANK": 4.000000, "PLACE": "city", "POPULATION": 1019942.000000, "PRESENCE": "no" }, "geometry": { "type": "Point", "coordinates": [ -114.08529, 51.05011 ] } },
{ "type": "Feature", "properties": { "NAME_FR": "Managua", "PAYS_FR": "Nicaragua", "LDIR": "W", "CAPITAL": "yes", "NAME": "Managua", "RANK": 2.000000, "PLACE": "city", "POPULATION": 973087.000000, "PRESENCE": "yes" }, "geometry": { "type": "Point", "coordinates": [ -86.2504, 12.13282 ] } },
{ "type": "Feature", "properties": { "NAME_FR": "Détroit", "PAYS_FR": "États-Unis", "LDIR": "W", "CAPITAL": "no", "NAME": "Detroit", "RANK": 4.000000, "PLACE": "city", "POPULATION": 951270.000000, "PRESENCE": "no" }, "geometry": { "type": "Point", "coordinates": [ -83.04575, 42.33143 ] } },
{ "type": "Feature", "properties": { "NAME_FR": "San José", "PAYS_FR": "États-Unis", "LDIR": "S", "CAPITAL": "no", "NAME": "San Jose", "RANK": 4.000000, "PLACE": "city", "POPULATION": 894943.000000, "PRESENCE": "no" }, "geometry": { "type": "Point", "coordinates": [ -121.89496, 37.33939 ] } },
{ "type": "Feature", "properties": { "NAME_FR": "Tegucigalpa", "PAYS_FR": "Honduras", "LDIR": "E", "CAPITAL": "yes", "NAME": "Tegucigalpa", "RANK": 2.000000, "PLACE": "city", "POPULATION": 850848.000000, "PRESENCE": "yes" }, "geometry": { "type": "Point", "coordinates": [ -87.20681, 14.0818 ] } },
{ "type": "Feature", "properties": { "NAME_FR": "Ottawa", "PAYS_FR": "Canada", "LDIR": "SW", "CAPITAL": "yes", "NAME": "Ottawa", "RANK": 2.000000, "PLACE": "city", "POPULATION": 812129.000000, "PRESENCE": "yes" }, "geometry": { "type": "Point", "coordinates": [ -75.69812, 45.41117 ] } },
{ "type": "Feature", "properties": { "NAME_FR": "Indianapolis", "PAYS_FR": "États-Unis", "LDIR": "E", "CAPITAL": "no", "NAME": "Indianapolis", "RANK": 4.000000, "PLACE": "city", "POPULATION": 773283.000000, "PRESENCE": "no" }, "geometry": { "type": "Point", "coordinates": [ -86.15804, 39.76838 ] } },
{ "type": "Feature", "properties": { "NAME_FR": "Columbus", "PAYS_FR": "États-Unis", "LDIR": "W", "CAPITAL": "no", "NAME": "Columbus", "RANK": 4.000000, "PLACE": "city", "POPULATION": 736836.000000, "PRESENCE": "no" }, "geometry": { "type": "Point", "coordinates": [ -82.99879, 39.96118 ] } },
{ "type": "Feature", "properties": { "NAME_FR": "Edmonton", "PAYS_FR": "Canada", "LDIR": "N", "CAPITAL": "no", "NAME": "Edmonton", "RANK": 4.000000, "PLACE": "city", "POPULATION": 712391.000000, "PRESENCE": "no" }, "geometry": { "type": "Point", "coordinates": [ -113.46871, 53.55014 ] } },
{ "type": "Feature", "properties": { "NAME_FR": "Chihuahua", "PAYS_FR": "Mexique", "LDIR": "S", "CAPITAL": "no", "NAME": "Chihuahua", "RANK": 4.000000, "PLACE": "city", "POPULATION": 708267.000000, "PRESENCE": "no" }, "geometry": { "type": "Point", "coordinates": [ -106.08333, 28.63333 ] } },
{ "type": "Feature", "properties": { "NAME_FR": "Memphis", "PAYS_FR": "États-Unis", "LDIR": "N", "CAPITAL": "no", "NAME": "Memphis", "RANK": 4.000000, "PLACE": "city", "POPULATION": 650100.000000, "PRESENCE": "no" }, "geometry": { "type": "Point", "coordinates": [ -90.04898, 35.14953 ] } },
{ "type": "Feature", "properties": { "NAME_FR": "Winnipeg", "PAYS_FR": "Canada", "LDIR": "N", "CAPITAL": "no", "NAME": "Winnipeg", "RANK": 4.000000, "PLACE": "city", "POPULATION": 632063.000000, "PRESENCE": "no" }, "geometry": { "type": "Point", "coordinates": [ -97.14704, 49.8844 ] } },
{ "type": "Feature", "properties": { "NAME_FR": "Baltimore", "PAYS_FR": "États-Unis", "LDIR": "N", "CAPITAL": "no", "NAME": "Baltimore", "RANK": 4.000000, "PLACE": "city", "POPULATION": 610892.000000, "PRESENCE": "no" }, "geometry": { "type": "Point", "coordinates": [ -76.61219, 39.29038 ] } },
{ "type": "Feature", "properties": { "NAME_FR": "Charlotte", "PAYS_FR": "États-Unis", "LDIR": "N", "CAPITAL": "no", "NAME": "Charlotte", "RANK": 4.000000, "PLACE": "city", "POPULATION": 598351.000000, "PRESENCE": "no" }, "geometry": { "type": "Point", "coordinates": [ -80.84313, 35.22709 ] } },
{ "type": "Feature", "properties": { "NAME_FR": "Milwaukee", "PAYS_FR": "États-Unis", "LDIR": "N", "CAPITAL": "no", "NAME": "Milwaukee", "RANK": 4.000000, "PLACE": "city", "POPULATION": 579180.000000, "PRESENCE": "no" }, "geometry": { "type": "Point", "coordinates": [ -87.90647, 43.0389 ] } },
{ "type": "Feature", "properties": { "NAME_FR": "Portland", "PAYS_FR": "États-Unis", "LDIR": "S", "CAPITAL": "no", "NAME": "Portland", "RANK": 4.000000, "PLACE": "city", "POPULATION": 540513.000000, "PRESENCE": "no" }, "geometry": { "type": "Point", "coordinates": [ -122.67621, 45.52345 ] } },
{ "type": "Feature", "properties": { "NAME_FR": "Nashville", "PAYS_FR": "États-Unis", "LDIR": "N", "CAPITAL": "no", "NAME": "Nashville", "RANK": 4.000000, "PLACE": "city", "POPULATION": 530852.000000, "PRESENCE": "no" }, "geometry": { "type": "Point", "coordinates": [ -86.78444, 36.16589 ] } },
{ "type": "Feature", "properties": { "NAME_FR": "Québec", "PAYS_FR": "Canada", "LDIR": "N", "CAPITAL": "no", "NAME": "Québec", "RANK": 2.000000, "PLACE": "city", "POPULATION": 528595.000000, "PRESENCE": "yes" }, "geometry": { "type": "Point", "coordinates": [ -71.21454, 46.81228 ] } },
{ "type": "Feature", "properties": { "NAME_FR": "Albuquerque", "PAYS_FR": "États-Unis", "LDIR": "E", "CAPITAL": "no", "NAME": "Albuquerque", "RANK": 4.000000, "PLACE": "city", "POPULATION": 487378.000000, "PRESENCE": "no" }, "geometry": { "type": "Point", "coordinates": [ -106.65114, 35.08449 ] } },
{ "type": "Feature", "properties": { "NAME_FR": "La Nouvelle Orléans", "PAYS_FR": "États-Unis", "LDIR": "N", "CAPITAL": "no", "NAME": "New Orleans", "RANK": 2.000000, "PLACE": "city", "POPULATION": 484674.000000, "PRESENCE": "yes" }, "geometry": { "type": "Point", "coordinates": [ -90.07507, 29.95465 ] } },
{ "type": "Feature", "properties": { "NAME_FR": "Las Vegas", "PAYS_FR": "États-Unis", "LDIR": "E", "CAPITAL": "no", "NAME": "Las Vegas", "RANK": 4.000000, "PLACE": "city", "POPULATION": 478434.000000, "PRESENCE": "no" }, "geometry": { "type": "Point", "coordinates": [ -115.13722, 36.17497 ] } },
{ "type": "Feature", "properties": { "NAME_FR": "Cleveland", "PAYS_FR": "États-Unis", "LDIR": null, "CAPITAL": "no", "NAME": "Cleveland", "RANK": 4.000000, "PLACE": "city", "POPULATION": 449514.000000, "PRESENCE": "no" }, "geometry": { "type": "Point", "coordinates": [ -81.69541, 41.4995 ] } },
{ "type": "Feature", "properties": { "NAME_FR": "Kansas City", "PAYS_FR": "États-Unis", "LDIR": null, "CAPITAL": "no", "NAME": "Kansas City", "RANK": 4.000000, "PLACE": "city", "POPULATION": 441545.000000, "PRESENCE": "no" }, "geometry": { "type": "Point", "coordinates": [ -94.57857, 39.09973 ] } },
{ "type": "Feature", "properties": { "NAME_FR": "Panama", "PAYS_FR": "Panama", "LDIR": null, "CAPITAL": "yes", "NAME": "Panama City", "RANK": 2.000000, "PLACE": "city", "POPULATION": 408168.000000, "PRESENCE": "yes" }, "geometry": { "type": "Point", "coordinates": [ -79.51973, 8.9936 ] } },
{ "type": "Feature", "properties": { "NAME_FR": "Honolulu", "PAYS_FR": "États-Unis", "LDIR": null, "CAPITAL": "no", "NAME": "Honolulu", "RANK": 4.000000, "PLACE": "city", "POPULATION": 371657.000000, "PRESENCE": "no" }, "geometry": { "type": "Point", "coordinates": [ -157.85833, 21.30694 ] } },
{ "type": "Feature", "properties": { "NAME_FR": "Minneapolis", "PAYS_FR": "États-Unis", "LDIR": null, "CAPITAL": "no", "NAME": "Minneapolis", "RANK": 4.000000, "PLACE": "city", "POPULATION": 367773.000000, "PRESENCE": "no" }, "geometry": { "type": "Point", "coordinates": [ -93.26384, 44.97997 ] } },
{ "type": "Feature", "properties": { "NAME_FR": "Halifax", "PAYS_FR": "Canada", "LDIR": "N", "CAPITAL": "no", "NAME": "Halifax", "RANK": 4.000000, "PLACE": "city", "POPULATION": 359111.000000, "PRESENCE": "no" }, "geometry": { "type": "Point", "coordinates": [ -63.57239, 44.64533 ] } },
{ "type": "Feature", "properties": { "NAME_FR": "Tampa", "PAYS_FR": "États-Unis", "LDIR": null, "CAPITAL": "no", "NAME": "Tampa", "RANK": 4.000000, "PLACE": "city", "POPULATION": 324465.000000, "PRESENCE": "no" }, "geometry": { "type": "Point", "coordinates": [ -82.45843, 27.94752 ] } },
{ "type": "Feature", "properties": { "NAME_FR": "Saint-Louis", "PAYS_FR": "États-Unis", "LDIR": "W", "CAPITAL": "no", "NAME": "St. Louis", "RANK": 4.000000, "PLACE": "city", "POPULATION": 320916.000000, "PRESENCE": "no" }, "geometry": { "type": "Point", "coordinates": [ -90.19789, 38.62727 ] } },
{ "type": "Feature", "properties": { "NAME_FR": "Pittsburgh", "PAYS_FR": "États-Unis", "LDIR": null, "CAPITAL": "no", "NAME": "Pittsburgh", "RANK": 4.000000, "PLACE": "city", "POPULATION": 319494.000000, "PRESENCE": "no" }, "geometry": { "type": "Point", "coordinates": [ -79.99589, 40.44062 ] } },
{ "type": "Feature", "properties": { "NAME_FR": "Cincinnati", "PAYS_FR": "États-Unis", "LDIR": null, "CAPITAL": "no", "NAME": "Cincinnati", "RANK": 4.000000, "PLACE": "city", "POPULATION": 306382.000000, "PRESENCE": "no" }, "geometry": { "type": "Point", "coordinates": [ -84.45689, 39.162 ] } },
{ "type": "Feature", "properties": { "NAME_FR": "Valparaiso", "PAYS_FR": "Chili", "LDIR": "N", "CAPITAL": "no", "NAME": "Valparaiso", "RANK": 4.000000, "PLACE": "city", "POPULATION": 282448.000000, "PRESENCE": "no" }, "geometry": { "type": "Point", "coordinates": [ -71.62725, -33.03932 ] } },
{ "type": "Feature", "properties": { "NAME_FR": "Nassau", "PAYS_FR": "Bahamas", "LDIR": "W", "CAPITAL": "yes", "NAME": "Nassau", "RANK": 4.000000, "PLACE": "city", "POPULATION": 227940.000000, "PRESENCE": "no" }, "geometry": { "type": "Point", "coordinates": [ -77.34306, 25.05823 ] } },
{ "type": "Feature", "properties": { "NAME_FR": "Salt Lake City", "PAYS_FR": "États-Unis", "LDIR": "E", "CAPITAL": "no", "NAME": "Salt Lake City", "RANK": 4.000000, "PLACE": "city", "POPULATION": 178026.000000, "PRESENCE": "no" }, "geometry": { "type": "Point", "coordinates": [ -111.89105, 40.76078 ] } },
{ "type": "Feature", "properties": { "NAME_FR": "George Town", "PAYS_FR": "Îles Caïmans", "LDIR": "E", "CAPITAL": "yes", "NAME": "George Town", "RANK": 4.000000, "PLACE": "city", "POPULATION": 29370.000000, "PRESENCE": "no" }, "geometry": { "type": "Point", "coordinates": [ -81.36706, 19.28692 ] } },
{ "type": "Feature", "properties": { "NAME_FR": "Puebla", "PAYS_FR": "Mexique", "LDIR": "S", "CAPITAL": "no", "NAME": "Puebla", "RANK": 4.000000, "PLACE": "city", "POPULATION": 8700.000000, "PRESENCE": "no" }, "geometry": { "type": "Point", "coordinates": [ -115.35333, 32.56444 ] } },
{ "type": "Feature", "properties": { "NAME_FR": "Ciudad del Este", "PAYS_FR": "Paraguay", "LDIR": "N", "CAPITAL": "no", "NAME": "Ciudad del Este", "RANK": 4.000000, "PLACE": "city", "POPULATION": 320782.000000, "PRESENCE": "no" }, "geometry": { "type": "Point", "coordinates": [ -54.61667, -25.51667 ] } },
{ "type": "Feature", "properties": { "NAME_FR": "Shanghai", "PAYS_FR": "Chine", "LDIR": "N", "CAPITAL": "no", "NAME": "Shanghai", "RANK": 1.000000, "PLACE": "city", "POPULATION": 14608512.000000, "PRESENCE": "yes" }, "geometry": { "type": "Point", "coordinates": [ 121.45806, 31.22222 ] } },
{ "type": "Feature", "properties": { "NAME_FR": "Bombay", "PAYS_FR": "Inde", "LDIR": "W", "CAPITAL": "no", "NAME": "Mumbai", "RANK": 1.000000, "PLACE": "city", "POPULATION": 12691836.000000, "PRESENCE": "yes" }, "geometry": { "type": "Point", "coordinates": [ 72.84794, 19.01441 ] } },
{ "type": "Feature", "properties": { "NAME_FR": "Karachi", "PAYS_FR": "Pakistan", "LDIR": "W", "CAPITAL": "no", "NAME": "Karachi", "RANK": 1.000000, "PLACE": "city", "POPULATION": 11624219.000000, "PRESENCE": "yes" }, "geometry": { "type": "Point", "coordinates": [ 67.0822, 24.9056 ] } },
{ "type": "Feature", "properties": { "NAME_FR": "Istanbul", "PAYS_FR": "Turquie", "LDIR": "N", "CAPITAL": "no", "NAME": "Istanbul", "RANK": 1.000000, "PLACE": "city", "POPULATION": 11174257.000000, "PRESENCE": "yes" }, "geometry": { "type": "Point", "coordinates": [ 28.94966, 41.01384 ] } },
{ "type": "Feature", "properties": { "NAME_FR": "Manille", "PAYS_FR": "Philippines", "LDIR": "W", "CAPITAL": "yes", "NAME": "Manila", "RANK": 1.000000, "PLACE": "city", "POPULATION": 10444527.000000, "PRESENCE": "yes" }, "geometry": { "type": "Point", "coordinates": [ 120.97063, 14.58458 ] } },
{ "type": "Feature", "properties": { "NAME_FR": "Moscou", "PAYS_FR": "Russie", "LDIR": "E", "CAPITAL": "yes", "NAME": "Moscow", "RANK": 1.000000, "PLACE": "city", "POPULATION": 10381222.000000, "PRESENCE": "yes" }, "geometry": { "type": "Point", "coordinates": [ 37.61556, 55.75222 ] } },
{ "type": "Feature", "properties": { "NAME_FR": "Dacca", "PAYS_FR": "Bangladesh", "LDIR": "S", "CAPITAL": "yes", "NAME": "Dhaka", "RANK": 1.000000, "PLACE": "city", "POPULATION": 10356500.000000, "PRESENCE": "yes" }, "geometry": { "type": "Point", "coordinates": [ 90.40744, 23.7104 ] } },
{ "type": "Feature", "properties": { "NAME_FR": "Séoul", "PAYS_FR": "Corée du Sud", "LDIR": "NE", "CAPITAL": "yes", "NAME": "Seoul", "RANK": 1.000000, "PLACE": "city", "POPULATION": 10349312.000000, "PRESENCE": "yes" }, "geometry": { "type": "Point", "coordinates": [ 126.97783, 37.56826 ] } },
{ "type": "Feature", "properties": { "NAME_FR": "Lagos", "PAYS_FR": "Nigéria", "LDIR": "E", "CAPITAL": "no", "NAME": "Lagos", "RANK": 1.000000, "PLACE": "city", "POPULATION": 9000000.000000, "PRESENCE": "yes" }, "geometry": { "type": "Point", "coordinates": [ 3.39583, 6.45306 ] } },
{ "type": "Feature", "properties": { "NAME_FR": "Jakarta", "PAYS_FR": "Indonésie", "LDIR": "W", "CAPITAL": "yes", "NAME": "Jakarta", "RANK": 1.000000, "PLACE": "city", "POPULATION": 8540121.000000, "PRESENCE": "yes" }, "geometry": { "type": "Point", "coordinates": [ 106.84513, -6.21462 ] } },
{ "type": "Feature", "properties": { "NAME_FR": "Tokyo", "PAYS_FR": "Japon", "LDIR": "SW", "CAPITAL": "yes", "NAME": "Tokyo", "RANK": 1.000000, "PLACE": "city", "POPULATION": 8336599.000000, "PRESENCE": "yes" }, "geometry": { "type": "Point", "coordinates": [ 139.5813, 35.61488 ] } },
{ "type": "Feature", "properties": { "NAME_FR": "Taipei", "PAYS_FR": "Taiwan", "LDIR": null, "CAPITAL": "yes", "NAME": "Taipei", "RANK": 1.000000, "PLACE": "city", "POPULATION": 7871900.000000, "PRESENCE": "yes" }, "geometry": { "type": "Point", "coordinates": [ 121.53185, 25.04776 ] } },
{ "type": "Feature", "properties": { "NAME_FR": "Le Caire", "PAYS_FR": "Égypte", "LDIR": "W", "CAPITAL": "yes", "NAME": "Cairo", "RANK": 1.000000, "PLACE": "city", "POPULATION": 7734614.000000, "PRESENCE": "yes" }, "geometry": { "type": "Point", "coordinates": [ 31.24967, 30.06263 ] } },
{ "type": "Feature", "properties": { "NAME_FR": "Londres", "PAYS_FR": "Royaume-Uni", "LDIR": "SW", "CAPITAL": "yes", "NAME": "London", "RANK": 1.000000, "PLACE": "city", "POPULATION": 7556900.000000, "PRESENCE": "yes" }, "geometry": { "type": "Point", "coordinates": [ -0.12574, 51.50853 ] } },
{ "type": "Feature", "properties": { "NAME_FR": "Pékin", "PAYS_FR": "Chine", "LDIR": "W", "CAPITAL": "yes", "NAME": "Beijing", "RANK": 1.000000, "PLACE": "city", "POPULATION": 7480601.000000, "PRESENCE": "yes" }, "geometry": { "type": "Point", "coordinates": [ 116.39723, 39.9075 ] } },
{ "type": "Feature", "properties": { "NAME_FR": "Téhérran", "PAYS_FR": "Iran", "LDIR": "E", "CAPITAL": "yes", "NAME": "Tehran", "RANK": 1.000000, "PLACE": "city", "POPULATION": 7153309.000000, "PRESENCE": "yes" }, "geometry": { "type": "Point", "coordinates": [ 51.42151, 35.69439 ] } },
{ "type": "Feature", "properties": { "NAME_FR": "Hong Kong", "PAYS_FR": "Chine", "LDIR": "N", "CAPITAL": "yes", "NAME": "Hong Kong", "RANK": 1.000000, "PLACE": "city", "POPULATION": 7012738.000000, "PRESENCE": "yes" }, "geometry": { "type": "Point", "coordinates": [ 114.15769, 22.28552 ] } },
{ "type": "Feature", "properties": { "NAME_FR": "Bagdad", "PAYS_FR": "Irak", "LDIR": "E", "CAPITAL": "yes", "NAME": "Baghdad", "RANK": 1.000000, "PLACE": "city", "POPULATION": 5672513.000000, "PRESENCE": "yes" }, "geometry": { "type": "Point", "coordinates": [ 44.40088, 33.34058 ] } },
{ "type": "Feature", "properties": { "NAME_FR": "Bangkok", "PAYS_FR": "Thaïlande", "LDIR": "W", "CAPITAL": "yes", "NAME": "Bangkok", "RANK": 1.000000, "PLACE": "city", "POPULATION": 5104476.000000, "PRESENCE": "yes" }, "geometry": { "type": "Point", "coordinates": [ 100.51667, 13.75 ] } },
{ "type": "Feature", "properties": { "NAME_FR": "Bangalore", "PAYS_FR": "Inde", "LDIR": "N", "CAPITAL": "no", "NAME": "Bangalore", "RANK": 1.000000, "PLACE": "city", "POPULATION": 5104047.000000, "PRESENCE": "yes" }, "geometry": { "type": "Point", "coordinates": [ 77.60329, 12.97623 ] } },
{ "type": "Feature", "properties": { "NAME_FR": "Calcutta", "PAYS_FR": "Inde", "LDIR": "S", "CAPITAL": "no", "NAME": "Kolkata", "RANK": 1.000000, "PLACE": "city", "POPULATION": 4631392.000000, "PRESENCE": "yes" }, "geometry": { "type": "Point", "coordinates": [ 88.36972, 22.56972 ] } },
{ "type": "Feature", "properties": { "NAME_FR": "Sydney", "PAYS_FR": "Australie", "LDIR": "E", "CAPITAL": "no", "NAME": "Sydney", "RANK": 1.000000, "PLACE": "city", "POPULATION": 4394576.000000, "PRESENCE": "yes" }, "geometry": { "type": "Point", "coordinates": [ 151.20732, -33.86785 ] } },
{ "type": "Feature", "properties": { "NAME_FR": "Chennai", "PAYS_FR": "Inde", "LDIR": "N", "CAPITAL": "no", "NAME": "Chennai", "RANK": 4.000000, "PLACE": "city", "POPULATION": 4328063.000000, "PRESENCE": "no" }, "geometry": { "type": "Point", "coordinates": [ 80.27847, 13.08784 ] } },
{ "type": "Feature", "properties": { "NAME_FR": "Riyad", "PAYS_FR": "Arabie Saoudite", "LDIR": "E", "CAPITAL": "yes", "NAME": "Riyadh", "RANK": 1.000000, "PLACE": "city", "POPULATION": 4205961.000000, "PRESENCE": "yes" }, "geometry": { "type": "Point", "coordinates": [ 46.72185, 24.68773 ] } },
{ "type": "Feature", "properties": { "NAME_FR": "Saint-Pétersbourg", "PAYS_FR": "Russie", "LDIR": "N", "CAPITAL": "no", "NAME": "St. Petersburg", "RANK": 1.000000, "PLACE": "city", "POPULATION": 4039745.000000, "PRESENCE": "yes" }, "geometry": { "type": "Point", "coordinates": [ 30.26417, 59.89444 ] } },
{ "type": "Feature", "properties": { "NAME_FR": "Chongqing", "PAYS_FR": "Chine", "LDIR": "N", "CAPITAL": "no", "NAME": "Chongqing", "RANK": 4.000000, "PLACE": "city", "POPULATION": 3967028.000000, "PRESENCE": "no" }, "geometry": { "type": "Point", "coordinates": [ 106.55278, 29.56278 ] } },
{ "type": "Feature", "properties": { "NAME_FR": "Melbourne", "PAYS_FR": "Australie", "LDIR": "N", "CAPITAL": "no", "NAME": "Melbourne", "RANK": 4.000000, "PLACE": "city", "POPULATION": 3730206.000000, "PRESENCE": "no" }, "geometry": { "type": "Point", "coordinates": [ 144.96332, -37.814 ] } },
{ "type": "Feature", "properties": { "NAME_FR": "Hyderabad", "PAYS_FR": "Inde", "LDIR": "W", "CAPITAL": "no", "NAME": "Hyderabad", "RANK": 4.000000, "PLACE": "city", "POPULATION": 3597816.000000, "PRESENCE": "no" }, "geometry": { "type": "Point", "coordinates": [ 78.47444, 17.37528 ] } },
{ "type": "Feature", "properties": { "NAME_FR": "Hô-Chi-Minh Ville", "PAYS_FR": "Viêt Nam", "LDIR": "W", "CAPITAL": "no", "NAME": "Ho Chi Minh City", "RANK": 2.000000, "PLACE": "city", "POPULATION": 3467331.000000, "PRESENCE": "yes" }, "geometry": { "type": "Point", "coordinates": [ 106.66667, 10.75 ] } },
{ "type": "Feature", "properties": { "NAME_FR": "Le Cap", "PAYS_FR": "Afrique du Sud", "LDIR": "W", "CAPITAL": "no", "NAME": "Cape Town", "RANK": 1.000000, "PLACE": "city", "POPULATION": 3433441.000000, "PRESENCE": "yes" }, "geometry": { "type": "Point", "coordinates": [ 18.41667, -33.91667 ] } },
{ "type": "Feature", "properties": { "NAME_FR": "Berlin", "PAYS_FR": "Allemagne", "LDIR": "E", "CAPITAL": "yes", "NAME": "Berlin", "RANK": 1.000000, "PLACE": "city", "POPULATION": 3426354.000000, "PRESENCE": "yes" }, "geometry": { "type": "Point", "coordinates": [ 13.41053, 52.52437 ] } },
{ "type": "Feature", "properties": { "NAME_FR": "Madrid", "PAYS_FR": "Espagne", "LDIR": "SE", "CAPITAL": "yes", "NAME": "Madrid", "RANK": 1.000000, "PLACE": "city", "POPULATION": 3255944.000000, "PRESENCE": "yes" }, "geometry": { "type": "Point", "coordinates": [ -3.70256, 40.4165 ] } },
{ "type": "Feature", "properties": { "NAME_FR": "Canton", "PAYS_FR": "Chine", "LDIR": "N", "CAPITAL": "no", "NAME": "Guangzhou", "RANK": 1.000000, "PLACE": "city", "POPULATION": 3152825.000000, "PRESENCE": "yes" }, "geometry": { "type": "Point", "coordinates": [ 113.25, 23.11667 ] } },
{ "type": "Feature", "properties": { "NAME_FR": "Casablanca", "PAYS_FR": "Maroc", "LDIR": "E", "CAPITAL": "no", "NAME": "Casablanca", "RANK": 1.000000, "PLACE": "city", "POPULATION": 3144909.000000, "PRESENCE": "yes" }, "geometry": { "type": "Point", "coordinates": [ -7.61, 33.59 ] } },
{ "type": "Feature", "properties": { "NAME_FR": "Addis-Abeba", "PAYS_FR": "Ethiopie", "LDIR": "N", "CAPITAL": "yes", "NAME": "Addis Ababa", "RANK": 1.000000, "PLACE": "city", "POPULATION": 2757729.000000, "PRESENCE": "yes" }, "geometry": { "type": "Point", "coordinates": [ 38.74689, 9.02497 ] } },
{ "type": "Feature", "properties": { "NAME_FR": "Nairobi", "PAYS_FR": "Kenya", "LDIR": "SE", "CAPITAL": "yes", "NAME": "Nairobi", "RANK": 1.000000, "PLACE": "city", "POPULATION": 2750547.000000, "PRESENCE": "yes" }, "geometry": { "type": "Point", "coordinates": [ 36.81667, -1.28333 ] } },
{ "type": "Feature", "properties": { "NAME_FR": "Dar es Salam", "PAYS_FR": "Tanzanie", "LDIR": null, "CAPITAL": "no", "NAME": "Dar es Salaam", "RANK": 2.000000, "PLACE": "city", "POPULATION": 2698652.000000, "PRESENCE": "yes" }, "geometry": { "type": "Point", "coordinates": [ 39.26951, -6.82349 ] } },
{ "type": "Feature", "properties": { "NAME_FR": "Osaka", "PAYS_FR": "Japon", "LDIR": null, "CAPITAL": "no", "NAME": "Osaka", "RANK": 4.000000, "PLACE": "city", "POPULATION": 2592413.000000, "PRESENCE": "no" }, "geometry": { "type": "Point", "coordinates": [ 135.50218, 34.69374 ] } },
{ "type": "Feature", "properties": { "NAME_FR": "Kiev", "PAYS_FR": "Ukraine", "LDIR": "E", "CAPITAL": "yes", "NAME": "Kiev", "RANK": 1.000000, "PLACE": "city", "POPULATION": 2514227.000000, "PRESENCE": "yes" }, "geometry": { "type": "Point", "coordinates": [ 30.5238, 50.45466 ] } },
{ "type": "Feature", "properties": { "NAME_FR": "Dakar", "PAYS_FR": "Sénégal", "LDIR": "W", "CAPITAL": "yes", "NAME": "Dakar", "RANK": 1.000000, "PLACE": "city", "POPULATION": 2476400.000000, "PRESENCE": "yes" }, "geometry": { "type": "Point", "coordinates": [ -17.44406, 14.6937 ] } },
{ "type": "Feature", "properties": { "NAME_FR": "Paris", "PAYS_FR": "France", "LDIR": "E", "CAPITAL": "yes", "NAME": "Paris", "RANK": 1.000000, "PLACE": "city", "POPULATION": 2138551.000000, "PRESENCE": "yes" }, "geometry": { "type": "Point", "coordinates": [ 2.3488, 48.85341 ] } },
{ "type": "Feature", "properties": { "NAME_FR": "Almaty", "PAYS_FR": "Kazakhstan", "LDIR": "N", "CAPITAL": "no", "NAME": "Almaty", "RANK": 2.000000, "PLACE": "city", "POPULATION": 2000900.000000, "PRESENCE": "yes" }, "geometry": { "type": "Point", "coordinates": [ 76.95, 43.25 ] } },
{ "type": "Feature", "properties": { "NAME_FR": "Alger", "PAYS_FR": "Algérie", "LDIR": "E", "CAPITAL": "yes", "NAME": "Algiers", "RANK": 1.000000, "PLACE": "city", "POPULATION": 1977663.000000, "PRESENCE": "yes" }, "geometry": { "type": "Point", "coordinates": [ 3.04197, 36.7525 ] } },
{ "type": "Feature", "properties": { "NAME_FR": "Accra", "PAYS_FR": "Ghana", "LDIR": "W", "CAPITAL": "yes", "NAME": "Accra", "RANK": 1.000000, "PLACE": "city", "POPULATION": 1963264.000000, "PRESENCE": "yes" }, "geometry": { "type": "Point", "coordinates": [ -0.1969, 5.55602 ] } },
{ "type": "Feature", "properties": { "NAME_FR": "Varsovie", "PAYS_FR": "Pologne", "LDIR": "E", "CAPITAL": "yes", "NAME": "Warsaw", "RANK": 1.000000, "PLACE": "city", "POPULATION": 1702139.000000, "PRESENCE": "yes" }, "geometry": { "type": "Point", "coordinates": [ 21.01178, 52.22977 ] } },
{ "type": "Feature", "properties": { "NAME_FR": "Vienne", "PAYS_FR": "Autriche", "LDIR": "W", "CAPITAL": "yes", "NAME": "Vienna", "RANK": 1.000000, "PLACE": "city", "POPULATION": 1691468.000000, "PRESENCE": "yes" }, "geometry": { "type": "Point", "coordinates": [ 16.37208, 48.20849 ] } },
{ "type": "Feature", "properties": { "NAME_FR": "Barcelone", "PAYS_FR": "Espagne", "LDIR": "N", "CAPITAL": "no", "NAME": "Barcelona", "RANK": 1.000000, "PLACE": "city", "POPULATION": 1621537.000000, "PRESENCE": "yes" }, "geometry": { "type": "Point", "coordinates": [ 2.15899, 41.38879 ] } },
{ "type": "Feature", "properties": { "NAME_FR": "Kuala Lumpur", "PAYS_FR": "Malaysie", "LDIR": "E", "CAPITAL": "yes", "NAME": "Kuala Lumpur", "RANK": 1.000000, "PLACE": "city", "POPULATION": 1453975.000000, "PRESENCE": "yes" }, "geometry": { "type": "Point", "coordinates": [ 101.68653, 3.1412 ] } },
{ "type": "Feature", "properties": { "NAME_FR": "Perth", "PAYS_FR": "Australie", "LDIR": "E", "CAPITAL": "no", "NAME": "Perth", "RANK": 4.000000, "PLACE": "city", "POPULATION": 1446704.000000, "PRESENCE": "no" }, "geometry": { "type": "Point", "coordinates": [ 115.83333, -31.93333 ] } },
{ "type": "Feature", "properties": { "NAME_FR": "Novossibirsk", "PAYS_FR": "Russie", "LDIR": null, "CAPITAL": "no", "NAME": "Novosibirsk", "RANK": 4.000000, "PLACE": "city", "POPULATION": 1419007.000000, "PRESENCE": "no" }, "geometry": { "type": "Point", "coordinates": [ 82.93444, 55.04111 ] } },
{ "type": "Feature", "properties": { "NAME_FR": "Antananarivo", "PAYS_FR": "Madagascar", "LDIR": "N", "CAPITAL": "yes", "NAME": "Antananarivo", "RANK": 1.000000, "PLACE": "city", "POPULATION": 1391433.000000, "PRESENCE": "yes" }, "geometry": { "type": "Point", "coordinates": [ 47.53098, -18.91433 ] } },
{ "type": "Feature", "properties": { "NAME_FR": "Milan", "PAYS_FR": "Italie", "LDIR": "N", "CAPITAL": "no", "NAME": "Milan", "RANK": 1.000000, "PLACE": "city", "POPULATION": 1306661.000000, "PRESENCE": "yes" }, "geometry": { "type": "Point", "coordinates": [ 9.18951, 45.46427 ] } },
{ "type": "Feature", "properties": { "NAME_FR": "Stockholm", "PAYS_FR": "Suède", "LDIR": "E", "CAPITAL": "yes", "NAME": "Stockholm", "RANK": 1.000000, "PLACE": "city", "POPULATION": 1253309.000000, "PRESENCE": "yes" }, "geometry": { "type": "Point", "coordinates": [ 18.0649, 59.33258 ] } },
{ "type": "Feature", "properties": { "NAME_FR": "Copenhague", "PAYS_FR": "Danemark", "LDIR": "E", "CAPITAL": "yes", "NAME": "Copenhagen", "RANK": 1.000000, "PLACE": "city", "POPULATION": 1153615.000000, "PRESENCE": "yes" }, "geometry": { "type": "Point", "coordinates": [ 12.56553, 55.67594 ] } },
{ "type": "Feature", "properties": { "NAME_FR": "Dubaï", "PAYS_FR": "Emirats arabes unis", "LDIR": "N", "CAPITAL": "no", "NAME": "Dubai", "RANK": 1.000000, "PLACE": "city", "POPULATION": 1137347.000000, "PRESENCE": "yes" }, "geometry": { "type": "Point", "coordinates": [ 55.28, 25.25222 ] } },
{ "type": "Feature", "properties": { "NAME_FR": "Bakou", "PAYS_FR": "Azerbaïdjan", "LDIR": "W", "CAPITAL": "yes", "NAME": "Baku", "RANK": 1.000000, "PLACE": "city", "POPULATION": 1116513.000000, "PRESENCE": "yes" }, "geometry": { "type": "Point", "coordinates": [ 49.89201, 40.37767 ] } },
{ "type": "Feature", "properties": { "NAME_FR": "Bruxelles", "PAYS_FR": "Belgique", "LDIR": "E", "CAPITAL": "yes", "NAME": "Brussels", "RANK": 1.000000, "PLACE": "city", "POPULATION": 1019022.000000, "PRESENCE": "yes" }, "geometry": { "type": "Point", "coordinates": [ 4.35277, 50.8466 ] } },
{ "type": "Feature", "properties": { "NAME_FR": "Brisbane", "PAYS_FR": "Australie", "LDIR": "W", "CAPITAL": "no", "NAME": "Brisbane", "RANK": 4.000000, "PLACE": "city", "POPULATION": 958504.000000, "PRESENCE": "no" }, "geometry": { "type": "Point", "coordinates": [ 153.02809, -27.46794 ] } },
{ "type": "Feature", "properties": { "NAME_FR": "Amsterdam", "PAYS_FR": "Pays-Bas", "LDIR": "NE", "CAPITAL": "yes", "NAME": "Amsterdam", "RANK": 1.000000, "PLACE": "city", "POPULATION": 741636.000000, "PRESENCE": "yes" }, "geometry": { "type": "Point", "coordinates": [ 4.88969, 52.37403 ] } },
{ "type": "Feature", "properties": { "NAME_FR": "Athènes", "PAYS_FR": "Grèce", "LDIR": "S", "CAPITAL": "yes", "NAME": "Athens", "RANK": 1.000000, "PLACE": "city", "POPULATION": 729137.000000, "PRESENCE": "yes" }, "geometry": { "type": "Point", "coordinates": [ 23.71622, 37.97945 ] } },
{ "type": "Feature", "properties": { "NAME_FR": "Tunis", "PAYS_FR": "Tunisie", "LDIR": "E", "CAPITAL": "yes", "NAME": "Tunis", "RANK": 1.000000, "PLACE": "city", "POPULATION": 693210.000000, "PRESENCE": "yes" }, "geometry": { "type": "Point", "coordinates": [ 10.16579, 36.81897 ] } },
{ "type": "Feature", "properties": { "NAME_FR": "Francfort", "PAYS_FR": "Allemagne", "LDIR": "E", "CAPITAL": "no", "NAME": "Frankfurt", "RANK": 2.000000, "PLACE": "city", "POPULATION": 650000.000000, "PRESENCE": "yes" }, "geometry": { "type": "Point", "coordinates": [ 8.68333, 50.11667 ] } },
{ "type": "Feature", "properties": { "NAME_FR": "Islamabad", "PAYS_FR": "Pakistan", "LDIR": "E", "CAPITAL": "yes", "NAME": "Islamabad", "RANK": 1.000000, "PLACE": "city", "POPULATION": 601600.000000, "PRESENCE": "yes" }, "geometry": { "type": "Point", "coordinates": [ 73.04329, 33.72148 ] } },
{ "type": "Feature", "properties": { "NAME_FR": "Auckland", "PAYS_FR": "Nouvelle-Zélande", "LDIR": null, "CAPITAL": "no", "NAME": "Auckland", "RANK": 4.000000, "PLACE": "city", "POPULATION": 417910.000000, "PRESENCE": "no" }, "geometry": { "type": "Point", "coordinates": [ 174.76667, -36.86667 ] } },
{ "type": "Feature", "properties": { "NAME_FR": "Wellington", "PAYS_FR": "Nouvelle-Zélande", "LDIR": null, "CAPITAL": "yes", "NAME": "Wellington", "RANK": 1.000000, "PLACE": "city", "POPULATION": 381900.000000, "PRESENCE": "yes" }, "geometry": { "type": "Point", "coordinates": [ 174.77557, -41.28664 ] } },
{ "type": "Feature", "properties": { "NAME_FR": "New Delhi", "PAYS_FR": "Inde", "LDIR": "W", "CAPITAL": "yes", "NAME": "New Delhi", "RANK": 1.000000, "PLACE": "city", "POPULATION": 317797.000000, "PRESENCE": "yes" }, "geometry": { "type": "Point", "coordinates": [ 77.22445, 28.63576 ] } },
{ "type": "Feature", "properties": { "NAME_FR": "Port Moresby", "PAYS_FR": "Papouasie-Nouvelle-Guinée", "LDIR": "W", "CAPITAL": "yes", "NAME": "Port Moresby", "RANK": 1.000000, "PLACE": "city", "POPULATION": 283733.000000, "PRESENCE": "yes" }, "geometry": { "type": "Point", "coordinates": [ 147.17972, -9.44314 ] } },
{ "type": "Feature", "properties": { "NAME_FR": "Tel Aviv-Jaffa", "PAYS_FR": "Israël", "LDIR": "W", "CAPITAL": "no", "NAME": "Tel Aviv", "RANK": 1.000000, "PLACE": "city", "POPULATION": 250000.000000, "PRESENCE": "yes" }, "geometry": { "type": "Point", "coordinates": [ 34.76667, 32.06667 ] } },
{ "type": "Feature", "properties": { "NAME_FR": "Kinshasa", "PAYS_FR": "République démocratique du Congo", "LDIR": "SE", "CAPITAL": "yes", "NAME": "Kinshasa", "RANK": 2.000000, "PLACE": "city", "POPULATION": 7785965.000000, "PRESENCE": "yes" }, "geometry": { "type": "Point", "coordinates": [ 15.32146, -4.32459 ] } },
{ "type": "Feature", "properties": { "NAME_FR": "Lahore", "PAYS_FR": "Pakistan", "LDIR": "E", "CAPITAL": "no", "NAME": "Lahore", "RANK": 1.000000, "PLACE": "city", "POPULATION": 6310888.000000, "PRESENCE": "no" }, "geometry": { "type": "Point", "coordinates": [ 74.34361, 31.54972 ] } },
{ "type": "Feature", "properties": { "NAME_FR": "Rangoun", "PAYS_FR": "Birmanie", "LDIR": "E", "CAPITAL": "no", "NAME": "Yangon", "RANK": 2.000000, "PLACE": "city", "POPULATION": 4477638.000000, "PRESENCE": "yes" }, "geometry": { "type": "Point", "coordinates": [ 96.15611, 16.80528 ] } },
{ "type": "Feature", "properties": { "NAME_FR": "Wuhan", "PAYS_FR": "Chine", "LDIR": "N", "CAPITAL": "no", "NAME": "Wuhan", "RANK": 2.000000, "PLACE": "city", "POPULATION": 4184206.000000, "PRESENCE": "yes" }, "geometry": { "type": "Point", "coordinates": [ 114.26667, 30.58333 ] } },
{ "type": "Feature", "properties": { "NAME_FR": "Chengdu", "PAYS_FR": "Chine", "LDIR": "N", "CAPITAL": "no", "NAME": "Chengdu", "RANK": 2.000000, "PLACE": "city", "POPULATION": 3950437.000000, "PRESENCE": "yes" }, "geometry": { "type": "Point", "coordinates": [ 104.06667, 30.66667 ] } },
{ "type": "Feature", "properties": { "NAME_FR": "Chittagong", "PAYS_FR": "Bangladesh", "LDIR": "S", "CAPITAL": "no", "NAME": "Chittagong", "RANK": 4.000000, "PLACE": "city", "POPULATION": 3920222.000000, "PRESENCE": "no" }, "geometry": { "type": "Point", "coordinates": [ 91.83639, 22.33306 ] } },
{ "type": "Feature", "properties": { "NAME_FR": "Alexandrie", "PAYS_FR": "Égypte", "LDIR": "N", "CAPITAL": "no", "NAME": "Alexandria", "RANK": 2.000000, "PLACE": "city", "POPULATION": 3811516.000000, "PRESENCE": "yes" }, "geometry": { "type": "Point", "coordinates": [ 29.91917, 31.19806 ] } },
{ "type": "Feature", "properties": { "NAME_FR": "Tianjin", "PAYS_FR": "Chine", "LDIR": "N", "CAPITAL": "no", "NAME": "Tianjin", "RANK": 4.000000, "PLACE": "city", "POPULATION": 3766207.000000, "PRESENCE": "no" }, "geometry": { "type": "Point", "coordinates": [ 117.17667, 39.14222 ] } },
{ "type": "Feature", "properties": { "NAME_FR": "Ahmedabad", "PAYS_FR": "Inde", "LDIR": "W", "CAPITAL": "no", "NAME": "Ahmadabad", "RANK": 4.000000, "PLACE": "city", "POPULATION": 3719710.000000, "PRESENCE": "no" }, "geometry": { "type": "Point", "coordinates": [ 72.61667, 23.03333 ] } },
{ "type": "Feature", "properties": { "NAME_FR": "Busan", "PAYS_FR": "Corée du Sud", "LDIR": "NW", "CAPITAL": "no", "NAME": "Pusan", "RANK": 4.000000, "PLACE": "city", "POPULATION": 3678555.000000, "PRESENCE": "no" }, "geometry": { "type": "Point", "coordinates": [ 129.04028, 35.10278 ] } },
{ "type": "Feature", "properties": { "NAME_FR": "Abidjan", "PAYS_FR": "Côte d'Ivoire", "LDIR": "S", "CAPITAL": "no", "NAME": "Abidjan", "RANK": 2.000000, "PLACE": "city", "POPULATION": 3677115.000000, "PRESENCE": "yes" }, "geometry": { "type": "Point", "coordinates": [ -4.02806, 5.34111 ] } },
{ "type": "Feature", "properties": { "NAME_FR": "Kano", "PAYS_FR": "Nigéria", "LDIR": "N", "CAPITAL": "no", "NAME": "Kano", "RANK": 4.000000, "PLACE": "city", "POPULATION": 3626068.000000, "PRESENCE": "no" }, "geometry": { "type": "Point", "coordinates": [ 8.51381, 11.99435 ] } },
{ "type": "Feature", "properties": { "NAME_FR": "Ibadan", "PAYS_FR": "Nigéria", "LDIR": null, "CAPITAL": "no", "NAME": "Ibadan", "RANK": 4.000000, "PLACE": "city", "POPULATION": 3565108.000000, "PRESENCE": "no" }, "geometry": { "type": "Point", "coordinates": [ 3.89639, 7.38778 ] } },
{ "type": "Feature", "properties": { "NAME_FR": "Ankara", "PAYS_FR": "Turquie", "LDIR": "W", "CAPITAL": "yes", "NAME": "Ankara", "RANK": 2.000000, "PLACE": "city", "POPULATION": 3517182.000000, "PRESENCE": "yes" }, "geometry": { "type": "Point", "coordinates": [ 32.85427, 39.91987 ] } },
{ "type": "Feature", "properties": { "NAME_FR": "Shenyang", "PAYS_FR": "Chine", "LDIR": "N", "CAPITAL": "no", "NAME": "Shenyang", "RANK": 2.000000, "PLACE": "city", "POPULATION": 3512192.000000, "PRESENCE": "yes" }, "geometry": { "type": "Point", "coordinates": [ 123.43278, 41.79222 ] } },
{ "type": "Feature", "properties": { "NAME_FR": "Harbin", "PAYS_FR": "Chine", "LDIR": "N", "CAPITAL": "no", "NAME": "Harbin", "RANK": 4.000000, "PLACE": "city", "POPULATION": 3229883.000000, "PRESENCE": "no" }, "geometry": { "type": "Point", "coordinates": [ 126.65, 45.75 ] } },
{ "type": "Feature", "properties": { "NAME_FR": "Xi’an", "PAYS_FR": "Chine", "LDIR": "N", "CAPITAL": "no", "NAME": "Xi’an", "RANK": 4.000000, "PLACE": "city", "POPULATION": 3225812.000000, "PRESENCE": "no" }, "geometry": { "type": "Point", "coordinates": [ 108.92861, 34.25833 ] } },
{ "type": "Feature", "properties": { "NAME_FR": "Pyongyang", "PAYS_FR": "Corée du Nord", "LDIR": "N", "CAPITAL": "yes", "NAME": "Pyongyang", "RANK": 1.000000, "PLACE": "city", "POPULATION": 3222000.000000, "PRESENCE": "no" }, "geometry": { "type": "Point", "coordinates": [ 125.75432, 39.03385 ] } },
{ "type": "Feature", "properties": { "NAME_FR": "Durban", "PAYS_FR": "Afrique du Sud", "LDIR": "N", "CAPITAL": "no", "NAME": "Durban", "RANK": 4.000000, "PLACE": "city", "POPULATION": 3120282.000000, "PRESENCE": "no" }, "geometry": { "type": "Point", "coordinates": [ 31.01667, -29.85 ] } },
{ "type": "Feature", "properties": { "NAME_FR": "Nanjing", "PAYS_FR": "Chine", "LDIR": "N", "CAPITAL": "no", "NAME": "Nanjing", "RANK": 4.000000, "PLACE": "city", "POPULATION": 3087010.000000, "PRESENCE": "no" }, "geometry": { "type": "Point", "coordinates": [ 118.77778, 32.06167 ] } },
{ "type": "Feature", "properties": { "NAME_FR": "Kaboul", "PAYS_FR": "Afghanistan", "LDIR": "N", "CAPITAL": "yes", "NAME": "Kabul", "RANK": 2.000000, "PLACE": "city", "POPULATION": 3043532.000000, "PRESENCE": "yes" }, "geometry": { "type": "Point", "coordinates": [ 69.17233, 34.52813 ] } },
{ "type": "Feature", "properties": { "NAME_FR": "Pune", "PAYS_FR": "Inde", "LDIR": "E", "CAPITAL": "no", "NAME": "Pune", "RANK": 4.000000, "PLACE": "city", "POPULATION": 2935744.000000, "PRESENCE": "no" }, "geometry": { "type": "Point", "coordinates": [ 73.85535, 18.51957 ] } },
{ "type": "Feature", "properties": { "NAME_FR": "Surate", "PAYS_FR": "Inde", "LDIR": "E", "CAPITAL": "no", "NAME": "Surat", "RANK": 4.000000, "PLACE": "city", "POPULATION": 2894504.000000, "PRESENCE": "no" }, "geometry": { "type": "Point", "coordinates": [ 72.83333, 21.16667 ] } },
{ "type": "Feature", "properties": { "NAME_FR": "Djeddah", "PAYS_FR": "Arabie Saoudite", "LDIR": "W", "CAPITAL": "no", "NAME": "Jeddah", "RANK": 2.000000, "PLACE": "city", "POPULATION": 2867446.000000, "PRESENCE": "yes" }, "geometry": { "type": "Point", "coordinates": [ 39.21917, 21.51694 ] } },
{ "type": "Feature", "properties": { "NAME_FR": "Kanpur", "PAYS_FR": "Inde", "LDIR": "W", "CAPITAL": "no", "NAME": "Kanpur", "RANK": 4.000000, "PLACE": "city", "POPULATION": 2823249.000000, "PRESENCE": "no" }, "geometry": { "type": "Point", "coordinates": [ 80.35, 26.46667 ] } },
{ "type": "Feature", "properties": { "NAME_FR": "Luanda", "PAYS_FR": "Angola", "LDIR": "W", "CAPITAL": "yes", "NAME": "Luanda", "RANK": 2.000000, "PLACE": "city", "POPULATION": 2776168.000000, "PRESENCE": "yes" }, "geometry": { "type": "Point", "coordinates": [ 13.23444, -8.83833 ] } },
{ "type": "Feature", "properties": { "NAME_FR": "Taiyuan", "PAYS_FR": "Chine", "LDIR": "N", "CAPITAL": "no", "NAME": "Taiyuan", "RANK": 4.000000, "PLACE": "city", "POPULATION": 2722475.000000, "PRESENCE": "no" }, "geometry": { "type": "Point", "coordinates": [ 112.56028, 37.86944 ] } },
{ "type": "Feature", "properties": { "NAME_FR": "Jaipur", "PAYS_FR": "Inde", "LDIR": "N", "CAPITAL": "no", "NAME": "Jaipur", "RANK": 4.000000, "PLACE": "city", "POPULATION": 2711758.000000, "PRESENCE": "no" }, "geometry": { "type": "Point", "coordinates": [ 75.81667, 26.91667 ] } },
{ "type": "Feature", "properties": { "NAME_FR": "Mogadiscio", "PAYS_FR": "Somalie", "LDIR": "E", "CAPITAL": "yes", "NAME": "Mogadishu", "RANK": 1.000000, "PLACE": "city", "POPULATION": 2587183.000000, "PRESENCE": "no" }, "geometry": { "type": "Point", "coordinates": [ 45.34375, 2.03711 ] } },
{ "type": "Feature", "properties": { "NAME_FR": "Changchun", "PAYS_FR": "Chine", "LDIR": "N", "CAPITAL": "no", "NAME": "Changchun", "RANK": 4.000000, "PLACE": "city", "POPULATION": 2537421.000000, "PRESENCE": "no" }, "geometry": { "type": "Point", "coordinates": [ 125.32278, 43.88 ] } },
{ "type": "Feature", "properties": { "NAME_FR": "Faisalabad", "PAYS_FR": "Pakistan", "LDIR": "W", "CAPITAL": "no", "NAME": "Faisalabad", "RANK": 4.000000, "PLACE": "city", "POPULATION": 2506595.000000, "PRESENCE": "no" }, "geometry": { "type": "Point", "coordinates": [ 73.08333, 31.41667 ] } },
{ "type": "Feature", "properties": { "NAME_FR": "Izmir", "PAYS_FR": "Turquie", "LDIR": "N", "CAPITAL": "no", "NAME": "Izmir", "RANK": 4.000000, "PLACE": "city", "POPULATION": 2500603.000000, "PRESENCE": "no" }, "geometry": { "type": "Point", "coordinates": [ 27.13838, 38.41273 ] } },
{ "type": "Feature", "properties": { "NAME_FR": "Lucknow", "PAYS_FR": "Inde", "LDIR": "E", "CAPITAL": "no", "NAME": "Lucknow", "RANK": 4.000000, "PLACE": "city", "POPULATION": 2472011.000000, "PRESENCE": "no" }, "geometry": { "type": "Point", "coordinates": [ 80.91667, 26.85 ] } },
{ "type": "Feature", "properties": { "NAME_FR": "Surabaya", "PAYS_FR": "Indonésie", "LDIR": "E", "CAPITAL": "no", "NAME": "Surabaya", "RANK": 4.000000, "PLACE": "city", "POPULATION": 2374658.000000, "PRESENCE": "no" }, "geometry": { "type": "Point", "coordinates": [ 112.75083, -7.24917 ] } },
{ "type": "Feature", "properties": { "NAME_FR": "Mashhad", "PAYS_FR": "Iran", "LDIR": "N", "CAPITAL": "no", "NAME": "Mashhad", "RANK": 4.000000, "PLACE": "city", "POPULATION": 2307177.000000, "PRESENCE": "no" }, "geometry": { "type": "Point", "coordinates": [ 59.6062, 36.297 ] } },
{ "type": "Feature", "properties": { "NAME_FR": "Nagpur", "PAYS_FR": "Inde", "LDIR": "E", "CAPITAL": "no", "NAME": "Nagpur", "RANK": 4.000000, "PLACE": "city", "POPULATION": 2228018.000000, "PRESENCE": "no" }, "geometry": { "type": "Point", "coordinates": [ 79.1, 21.15 ] } },
{ "type": "Feature", "properties": { "NAME_FR": "Nagoya", "PAYS_FR": "Japon", "LDIR": null, "CAPITAL": "no", "NAME": "Nagoya", "RANK": 4.000000, "PLACE": "city", "POPULATION": 2191279.000000, "PRESENCE": "no" }, "geometry": { "type": "Point", "coordinates": [ 136.90641, 35.18147 ] } },
{ "type": "Feature", "properties": { "NAME_FR": "Jinan", "PAYS_FR": "Chine", "LDIR": "N", "CAPITAL": "no", "NAME": "Jinan", "RANK": 4.000000, "PLACE": "city", "POPULATION": 2069266.000000, "PRESENCE": "no" }, "geometry": { "type": "Point", "coordinates": [ 116.99722, 36.66833 ] } },
{ "type": "Feature", "properties": { "NAME_FR": "Dalian", "PAYS_FR": "Chine", "LDIR": "N", "CAPITAL": "no", "NAME": "Dalian", "RANK": 4.000000, "PLACE": "city", "POPULATION": 2035307.000000, "PRESENCE": "no" }, "geometry": { "type": "Point", "coordinates": [ 121.60222, 38.91222 ] } },
{ "type": "Feature", "properties": { "NAME_FR": "Tachkent", "PAYS_FR": "Ouzbékistan", "LDIR": "S", "CAPITAL": "yes", "NAME": "Tashkent", "RANK": 2.000000, "PLACE": "city", "POPULATION": 1978028.000000, "PRESENCE": "yes" }, "geometry": { "type": "Point", "coordinates": [ 69.21627, 41.26465 ] } },
{ "type": "Feature", "properties": { "NAME_FR": "Khartoum", "PAYS_FR": "Soudan", "LDIR": "W", "CAPITAL": "yes", "NAME": "Khartoum", "RANK": 2.000000, "PLACE": "city", "POPULATION": 1974647.000000, "PRESENCE": "yes" }, "geometry": { "type": "Point", "coordinates": [ 32.53361, 15.54665 ] } },
{ "type": "Feature", "properties": { "NAME_FR": "Sanaa", "PAYS_FR": "Yémen", "LDIR": "W", "CAPITAL": "yes", "NAME": "Sanaa", "RANK": 1.000000, "PLACE": "city", "POPULATION": 1937451.000000, "PRESENCE": "no" }, "geometry": { "type": "Point", "coordinates": [ 44.20667, 15.35472 ] } },
{ "type": "Feature", "properties": { "NAME_FR": "Sapporo", "PAYS_FR": "Japon", "LDIR": null, "CAPITAL": "no", "NAME": "Sapporo", "RANK": 4.000000, "PLACE": "city", "POPULATION": 1883027.000000, "PRESENCE": "no" }, "geometry": { "type": "Point", "coordinates": [ 141.34694, 43.06417 ] } },
{ "type": "Feature", "properties": { "NAME_FR": "Bucarest", "PAYS_FR": "Roumanie", "LDIR": "W", "CAPITAL": "yes", "NAME": "Bucharest", "RANK": 2.000000, "PLACE": "city", "POPULATION": 1877155.000000, "PRESENCE": "yes" }, "geometry": { "type": "Point", "coordinates": [ 26.10626, 44.43225 ] } },
{ "type": "Feature", "properties": { "NAME_FR": "Nanchang", "PAYS_FR": "Chine", "LDIR": "N", "CAPITAL": "no", "NAME": "Nanchang", "RANK": 4.000000, "PLACE": "city", "POPULATION": 1871351.000000, "PRESENCE": "no" }, "geometry": { "type": "Point", "coordinates": [ 115.88333, 28.68333 ] } },
{ "type": "Feature", "properties": { "NAME_FR": "Medan", "PAYS_FR": "Indonésie", "LDIR": "N", "CAPITAL": "no", "NAME": "Medan", "RANK": 4.000000, "PLACE": "city", "POPULATION": 1750971.000000, "PRESENCE": "no" }, "geometry": { "type": "Point", "coordinates": [ 98.66667, 3.58333 ] } },
{ "type": "Feature", "properties": { "NAME_FR": "Minsk", "PAYS_FR": "Biélorussie", "LDIR": "N", "CAPITAL": "yes", "NAME": "Minsk", "RANK": 2.000000, "PLACE": "city", "POPULATION": 1742124.000000, "PRESENCE": "yes" }, "geometry": { "type": "Point", "coordinates": [ 27.56667, 53.9 ] } },
{ "type": "Feature", "properties": { "NAME_FR": "Hambourg", "PAYS_FR": "Allemagne", "LDIR": "N", "CAPITAL": "no", "NAME": "Hamburg", "RANK": 2.000000, "PLACE": "city", "POPULATION": 1739117.000000, "PRESENCE": "yes" }, "geometry": { "type": "Point", "coordinates": [ 10.0, 53.55 ] } },
{ "type": "Feature", "properties": { "NAME_FR": "Bandung", "PAYS_FR": "Indonésie", "LDIR": "S", "CAPITAL": "no", "NAME": "Bandung", "RANK": 4.000000, "PLACE": "city", "POPULATION": 1699719.000000, "PRESENCE": "no" }, "geometry": { "type": "Point", "coordinates": [ 107.61861, -6.90389 ] } },
{ "type": "Feature", "properties": { "NAME_FR": "Budapest", "PAYS_FR": "Hongrie", "LDIR": "N", "CAPITAL": "yes", "NAME": "Budapest", "RANK": 2.000000, "PLACE": "city", "POPULATION": 1696128.000000, "PRESENCE": "yes" }, "geometry": { "type": "Point", "coordinates": [ 19.03991, 47.49801 ] } },
{ "type": "Feature", "properties": { "NAME_FR": "Qingdao", "PAYS_FR": "Chine", "LDIR": "N", "CAPITAL": "no", "NAME": "Qingdao", "RANK": 4.000000, "PLACE": "city", "POPULATION": 1642245.000000, "PRESENCE": "no" }, "geometry": { "type": "Point", "coordinates": [ 120.37194, 36.09861 ] } },
{ "type": "Feature", "properties": { "NAME_FR": "Pretoria", "PAYS_FR": "Afrique du sud", "LDIR": "E", "CAPITAL": "yes", "NAME": "Pretoria", "RANK": 2.000000, "PLACE": "city", "POPULATION": 1619438.000000, "PRESENCE": "yes" }, "geometry": { "type": "Point", "coordinates": [ 28.18783, -25.74486 ] } },
{ "type": "Feature", "properties": { "NAME_FR": "Alep", "PAYS_FR": "Syrie", "LDIR": null, "CAPITAL": "no", "NAME": "Aleppo", "RANK": 4.000000, "PLACE": "city", "POPULATION": 1602264.000000, "PRESENCE": "no" }, "geometry": { "type": "Point", "coordinates": [ 37.15861, 36.20278 ] } },
{ "type": "Feature", "properties": { "NAME_FR": "Kaduna", "PAYS_FR": "Nigéria", "LDIR": "N", "CAPITAL": "no", "NAME": "Kaduna", "RANK": 4.000000, "PLACE": "city", "POPULATION": 1582102.000000, "PRESENCE": "no" }, "geometry": { "type": "Point", "coordinates": [ 7.43828, 10.52224 ] } },
{ "type": "Feature", "properties": { "NAME_FR": "Phnom Penh", "PAYS_FR": "Cambodge", "LDIR": "W", "CAPITAL": "yes", "NAME": "Phnom Penh", "RANK": 2.000000, "PLACE": "city", "POPULATION": 1573544.000000, "PRESENCE": "yes" }, "geometry": { "type": "Point", "coordinates": [ 104.91667, 11.55 ] } },
{ "type": "Feature", "properties": { "NAME_FR": "Damas", "PAYS_FR": "Syrie", "LDIR": "E", "CAPITAL": "yes", "NAME": "Damascus", "RANK": 1.000000, "PLACE": "city", "POPULATION": 1569394.000000, "PRESENCE": "no" }, "geometry": { "type": "Point", "coordinates": [ 36.29128, 33.5102 ] } },
{ "type": "Feature", "properties": { "NAME_FR": "Ispahan", "PAYS_FR": "Iran", "LDIR": "N", "CAPITAL": "no", "NAME": "Esfahan", "RANK": 4.000000, "PLACE": "city", "POPULATION": 1547164.000000, "PRESENCE": "no" }, "geometry": { "type": "Point", "coordinates": [ 51.67761, 32.65722 ] } },